[
  {
    "name": "INCOM INC.",
    "lat": 42.107356,
    "lon": -72.01501,
    "naics": "327215",
    "sector": "Glass",
    "state": "MA",
    "city": "CHARLTON",
    "egrid_subregion": "NEWE"
  },
  {
    "name": "ATI FLAT ROLLED PRODUCTS HOLDINGS LLC",
    "lat": 40.604898,
    "lon": -79.564913,
    "naics": "331110",
    "sector": "Iron & Steel",
    "state": "PA",
    "city": "VANDERGRIFT",
    "egrid_subregion": "RFCW"
  },
  {
    "name": "CENTRAL WIRE INC",
    "lat": 42.240562,
    "lon": -88.530731,
    "naics": "331222",
    "sector": "Iron & Steel",
    "state": "IL",
    "city": "UNION",
    "egrid_subregion": "RFCW"
  },
  {
    "name": "AXIS PIPE & TUBE LLC",
    "lat": 30.730549,
    "lon": -96.450996,
    "naics": "331221",
    "sector": "Iron & Steel",
    "state": "TX",
    "city": "BRYAN",
    "egrid_subregion": "ERCT"
  },
  {
    "name": "MITSUBISHI CEMENT CORP.",
    "lat": 34.347634,
    "lon": -116.845363,
    "naics": "327310",
    "sector": "Cement",
    "state": "CA",
    "city": "LUCERNE VALLEY",
    "egrid_subregion": "CAMX"
  },
  {
    "name": "INTEL CORP-RONLER ACRES CAMPUS",
    "lat": 45.544478,
    "lon": -122.909897,
    "naics": "334413",
    "sector": "Solar",
    "state": "OR",
    "city": "HILLSBORO",
    "egrid_subregion": "NWPP"
  },
  {
    "name": "INTEL CORP-OCOTILLO CAMPUS",
    "lat": 33.24123,
    "lon": -111.876143,
    "naics": "334413",
    "sector": "Solar",
    "state": "AZ",
    "city": "CHANDLER",
    "egrid_subregion": "AZNM"
  },
  {
    "name": "ALCOA WARRICK NEWCO LLC",
    "lat": 37.932766,
    "lon": -87.330299,
    "naics": "331313",
    "sector": "Aluminum",
    "state": "IN",
    "city": "NEWBURGH",
    "egrid_subregion": "RFCW"
  },
  {
    "name": "THISTLE PROCESSING LLC",
    "lat": 38.412208,
    "lon": -82.382,
    "naics": "331491",
    "sector": "Aluminum",
    "state": "WV",
    "city": "HUNTINGTON",
    "egrid_subregion": "RFCW"
  },
  {
    "name": "SIGNAL MOUNTAIN CEMENT CO DBA BUZZI UNICEM USA",
    "lat": 35.101961,
    "lon": -85.352495,
    "naics": "327310",
    "sector": "Cement",
    "state": "TN",
    "city": "CHATTANOOGA",
    "egrid_subregion": "SRTV"
  },
  {
    "name": "FISK ALLOY WIRE INC",
    "lat": 40.937782,
    "lon": -74.16098,
    "naics": "331420",
    "sector": "Aluminum",
    "state": "NJ",
    "city": "HAWTHORNE",
    "egrid_subregion": "RFCE"
  },
  {
    "name": "LUVATA APPLETON LLC",
    "lat": 44.269745,
    "lon": -88.397049,
    "naics": "331420",
    "sector": "Aluminum",
    "state": "WI",
    "city": "APPLETON",
    "egrid_subregion": "RFCW"
  },
  {
    "name": "BUZZI UNICEM USA-CAPE GIRARDEAU",
    "lat": 37.273758,
    "lon": -89.535735,
    "naics": "327310",
    "sector": "Cement",
    "state": "MO",
    "city": "CAPE GIRARDEAU",
    "egrid_subregion": "SRMW"
  },
  {
    "name": "CHEMOURS WASHINGTON WORKS",
    "lat": 39.268955,
    "lon": -81.659779,
    "naics": "325120",
    "sector": "Hydrogen",
    "state": "WV",
    "city": "WASHINGTON",
    "egrid_subregion": "RFCW"
  },
  {
    "name": "CLEVELAND-CLIFFS BURNS HARBOR LLC",
    "lat": 41.668476,
    "lon": -86.994902,
    "naics": "331110",
    "sector": "Iron & Steel",
    "state": "IN",
    "city": "BURNS HARBOR",
    "egrid_subregion": "RFCW"
  },
  {
    "name": "BEFESA ZINC US INC.",
    "lat": 33.242023,
    "lon": -81.455704,
    "naics": "331492",
    "sector": "Aluminum",
    "state": "SC",
    "city": "BARNWELL",
    "egrid_subregion": "SRVC"
  },
  {
    "name": "CHARTER STEEL RISINGSUN",
    "lat": 41.242149,
    "lon": -83.420158,
    "naics": "331110",
    "sector": "Iron & Steel",
    "state": "OH",
    "city": "RISINGSUN",
    "egrid_subregion": "RFCW"
  },
  {
    "name": "TTM TECHNOLOGIES N.A. LLC",
    "lat": 44.94104,
    "lon": -91.357994,
    "naics": "334412",
    "sector": "Solar",
    "state": "WI",
    "city": "CHIPPEWA FALLS",
    "egrid_subregion": "MROW"
  },
  {
    "name": "KAISER ALUMINUM FABRICATED PRODUCTS LLC",
    "lat": 33.284498,
    "lon": -111.953515,
    "naics": "331318",
    "sector": "Aluminum",
    "state": "AZ",
    "city": "CHANDLER",
    "egrid_subregion": "AZNM"
  },
  {
    "name": "ENCORE WIRE CORP",
    "lat": 33.181372,
    "lon": -96.604704,
    "naics": "331420",
    "sector": "Aluminum",
    "state": "TX",
    "city": "MC KINNEY",
    "egrid_subregion": "ERCT"
  },
  {
    "name": "SCHINDLER ELEVATOR CORP",
    "lat": 41.61282,
    "lon": -83.725525,
    "naics": "334418",
    "sector": "Solar",
    "state": "OH",
    "city": "HOLLAND",
    "egrid_subregion": "RFCW"
  },
  {
    "name": "ELLWOOD REMELT STEEL",
    "lat": 40.987242,
    "lon": -80.350513,
    "naics": "331110",
    "sector": "Iron & Steel",
    "state": "PA",
    "city": "NEW CASTLE",
    "egrid_subregion": "RFCE"
  },
  {
    "name": "ARCELORMITTAL TEXAS HBI LLC",
    "lat": 27.890003,
    "lon": -97.321494,
    "naics": "331110",
    "sector": "Iron & Steel",
    "state": "TX",
    "city": "PORTLAND",
    "egrid_subregion": "ERCT"
  },
  {
    "name": "TEXAS INSTRUMENTS INC",
    "lat": 32.997668,
    "lon": -96.716858,
    "naics": "334413",
    "sector": "Solar",
    "state": "TX",
    "city": "RICHARDSON",
    "egrid_subregion": "ERCT"
  },
  {
    "name": "LAMBCON READY MIX",
    "lat": 35.474342,
    "lon": -84.660409,
    "naics": "327310",
    "sector": "Cement",
    "state": "TN",
    "city": "ATHENS",
    "egrid_subregion": "SRTV"
  },
  {
    "name": "KAISER ALUMINUM WASHINGTON LLC",
    "lat": 47.686009,
    "lon": -117.20551,
    "naics": "331314",
    "sector": "Aluminum",
    "state": "WA",
    "city": "SPOKANE VALLEY",
    "egrid_subregion": "NWPP"
  },
  {
    "name": "AMES GOLDSMITH CORP",
    "lat": 43.311986,
    "lon": -73.626687,
    "naics": "331492",
    "sector": "Aluminum",
    "state": "NY",
    "city": "GLENS FALLS",
    "egrid_subregion": "NYUP"
  },
  {
    "name": "CONTINENTAL CEMENT CO LLC",
    "lat": 39.699642,
    "lon": -91.342771,
    "naics": "327310",
    "sector": "Cement",
    "state": "MO",
    "city": "HANNIBAL",
    "egrid_subregion": "SRMW"
  },
  {
    "name": "CLEVELAND-CLIFFS STEEL CORP /BUTLER WORKS",
    "lat": 40.831135,
    "lon": -79.924191,
    "naics": "331110",
    "sector": "Iron & Steel",
    "state": "PA",
    "city": "BUTLER",
    "egrid_subregion": "RFCE"
  },
  {
    "name": "PLANT FOOD CO INC",
    "lat": 40.290283,
    "lon": -74.502919,
    "naics": "325314",
    "sector": "Fertilizer",
    "state": "NJ",
    "city": "CRANBURY",
    "egrid_subregion": "RFCE"
  },
  {
    "name": "FREEPORT-MCMORAN MIAMI INC",
    "lat": 33.408174,
    "lon": -110.852126,
    "naics": "331410",
    "sector": "Aluminum",
    "state": "AZ",
    "city": "CLAYPOOL",
    "egrid_subregion": "AZNM"
  },
  {
    "name": "NORTH AMERICAN STAINLESS",
    "lat": 38.728595,
    "lon": -85.076222,
    "naics": "331110",
    "sector": "Iron & Steel",
    "state": "KY",
    "city": "GHENT",
    "egrid_subregion": "SRTV"
  },
  {
    "name": "DRAKE CEMENT LLC",
    "lat": 34.981318,
    "lon": -112.376133,
    "naics": "327310",
    "sector": "Cement",
    "state": "AZ",
    "city": "PAULDEN",
    "egrid_subregion": "AZNM"
  },
  {
    "name": "NATIONAL TECHNOLOGY INC",
    "lat": 42.098157,
    "lon": -88.027989,
    "naics": "334418",
    "sector": "Solar",
    "state": "IL",
    "city": "ROLLING MEADOWS",
    "egrid_subregion": "RFCW"
  },
  {
    "name": "USS MON VALLEY WORKS - EDGAR THOMSON PLANT",
    "lat": 40.397262,
    "lon": -79.859713,
    "naics": "331110",
    "sector": "Iron & Steel",
    "state": "PA",
    "city": "BRADDOCK",
    "egrid_subregion": "RFCW"
  },
  {
    "name": "BULL MOOSE TUBE",
    "lat": 28.050174,
    "lon": -97.489881,
    "naics": "331210",
    "sector": "Iron & Steel",
    "state": "TX",
    "city": "SINTON",
    "egrid_subregion": "ERCT"
  },
  {
    "name": "METALOR TECHNOLOGIES USA CORP REFINING DIV",
    "lat": 41.982901,
    "lon": -71.300807,
    "naics": "331410",
    "sector": "Aluminum",
    "state": "MA",
    "city": "NORTH ATTLEBORO",
    "egrid_subregion": "NEWE"
  },
  {
    "name": "GIANT CEMENT CO",
    "lat": 33.24174,
    "lon": -80.444886,
    "naics": "327310",
    "sector": "Cement",
    "state": "SC",
    "city": "HARLEYVILLE",
    "egrid_subregion": "SRVC"
  },
  {
    "name": "A-GAS US INC",
    "lat": 41.388988,
    "lon": -83.670308,
    "naics": "325120",
    "sector": "Hydrogen",
    "state": "OH",
    "city": "BOWLING GREEN",
    "egrid_subregion": "RFCW"
  },
  {
    "name": "CHEMICAL DYNAMICS INC",
    "lat": 27.993972,
    "lon": -82.166619,
    "naics": "325314",
    "sector": "Fertilizer",
    "state": "FL",
    "city": "PLANT CITY",
    "egrid_subregion": "FRCC"
  },
  {
    "name": "AMPHENOL APC INC",
    "lat": 42.737875,
    "lon": -71.489367,
    "naics": "334412",
    "sector": "Solar",
    "state": "NH",
    "city": "NASHUA",
    "egrid_subregion": "NEWE"
  },
  {
    "name": "CLEVELAND-CLIFFS STEELTON LLC",
    "lat": 40.232475,
    "lon": -76.836197,
    "naics": "331110",
    "sector": "Iron & Steel",
    "state": "PA",
    "city": "STEELTON",
    "egrid_subregion": "RFCE"
  },
  {
    "name": "REAL ALLOY RECYCLING LLC",
    "lat": 40.783697,
    "lon": -85.815703,
    "naics": "331314",
    "sector": "Aluminum",
    "state": "IN",
    "city": "WABASH",
    "egrid_subregion": "RFCW"
  },
  {
    "name": "ATI HUNTSVILLE OPERATIONS",
    "lat": 34.697633,
    "lon": -86.699799,
    "naics": "331491",
    "sector": "Aluminum",
    "state": "AL",
    "city": "HUNTSVILLE",
    "egrid_subregion": "SRTV"
  },
  {
    "name": "H KRAMER & CO",
    "lat": 41.854202,
    "lon": -87.659981,
    "naics": "331420",
    "sector": "Aluminum",
    "state": "IL",
    "city": "CHICAGO",
    "egrid_subregion": "RFCW"
  },
  {
    "name": "CARDINAL CG ABINGDON",
    "lat": 36.684265,
    "lon": -82.055448,
    "naics": "327215",
    "sector": "Glass",
    "state": "VA",
    "city": "ABINGDON",
    "egrid_subregion": "RFCW"
  },
  {
    "name": "GRANGES AMERICAS INC",
    "lat": 35.641903,
    "lon": -80.471581,
    "naics": "331315",
    "sector": "Aluminum",
    "state": "NC",
    "city": "SALISBURY",
    "egrid_subregion": "SRVC"
  },
  {
    "name": "ARKANSAS STEEL ASSOCIATES LLC",
    "lat": 35.645751,
    "lon": -91.24754,
    "naics": "331110",
    "sector": "Iron & Steel",
    "state": "AR",
    "city": "NEWPORT",
    "egrid_subregion": "SRMV"
  },
  {
    "name": "WEDGWORTH'S INC",
    "lat": 26.83369,
    "lon": -81.178417,
    "naics": "325314",
    "sector": "Fertilizer",
    "state": "FL",
    "city": "MOORE HAVEN",
    "egrid_subregion": "FRCC"
  },
  {
    "name": "TALLEY METALS TECHNOLOGY",
    "lat": 34.430101,
    "lon": -80.166234,
    "naics": "331221",
    "sector": "Iron & Steel",
    "state": "SC",
    "city": "MC BEE",
    "egrid_subregion": "SRVC"
  },
  {
    "name": "AIR PRODUCTS & CHEMICALS INC.",
    "lat": 33.776686,
    "lon": -118.240754,
    "naics": "325120",
    "sector": "Hydrogen",
    "state": "CA",
    "city": "WILMINGTON",
    "egrid_subregion": "CAMX"
  },
  {
    "name": "BEFESA ZINC METAL LLC",
    "lat": 35.193313,
    "lon": -81.848175,
    "naics": "331492",
    "sector": "Aluminum",
    "state": "NC",
    "city": "MOORESBORO",
    "egrid_subregion": "SRVC"
  },
  {
    "name": "LOGAN ALUMINUM INC",
    "lat": 36.725477,
    "lon": -86.860428,
    "naics": "331314",
    "sector": "Aluminum",
    "state": "KY",
    "city": "RUSSELLVILLE",
    "egrid_subregion": "SRTV"
  },
  {
    "name": "FTG CIRCUITS MINNETONKA LLC",
    "lat": 44.900833,
    "lon": -93.420695,
    "naics": "334412",
    "sector": "Solar",
    "state": "MN",
    "city": "MINNETONKA",
    "egrid_subregion": "MROW"
  },
  {
    "name": "AIR PRODUCTS & CHEMICALS",
    "lat": 39.580318,
    "lon": -75.635909,
    "naics": "325120",
    "sector": "Hydrogen",
    "state": "DE",
    "city": "NEW CASTLE",
    "egrid_subregion": "RFCE"
  },
  {
    "name": "PCS NITROGEN FERTILIZER LP",
    "lat": 33.443971,
    "lon": -81.932848,
    "naics": "325311",
    "sector": "Fertilizer",
    "state": "GA",
    "city": "AUGUSTA",
    "egrid_subregion": "SRSO"
  },
  {
    "name": "HOLCIM (US) INC. -  WHITEHALL PLANT",
    "lat": 40.689344,
    "lon": -75.507174,
    "naics": "327310",
    "sector": "Cement",
    "state": "PA",
    "city": "WHITEHALL",
    "egrid_subregion": "RFCE"
  },
  {
    "name": "AMETEK SPECIALTY METAL PRODUCTS DIV",
    "lat": 41.429077,
    "lon": -72.840556,
    "naics": "331318",
    "sector": "Aluminum",
    "state": "CT",
    "city": "WALLINGFORD",
    "egrid_subregion": "NEWE"
  },
  {
    "name": "CLEVELAND-CLIFFS STEEL CORP - ZANESVI LLE WORKS",
    "lat": 39.960316,
    "lon": -82.000993,
    "naics": "331110",
    "sector": "Iron & Steel",
    "state": "OH",
    "city": "ZANESVILLE",
    "egrid_subregion": "RFCW"
  },
  {
    "name": "MARCEGAGLIA STAINLESS RICHBURG LLC",
    "lat": 34.74872,
    "lon": -81.037959,
    "naics": "331221",
    "sector": "Iron & Steel",
    "state": "SC",
    "city": "RICHBURG",
    "egrid_subregion": "SRVC"
  },
  {
    "name": "CHEMOURS CO - FAYETTEVILLE WORKS",
    "lat": 34.835139,
    "lon": -78.856375,
    "naics": "325120",
    "sector": "Hydrogen",
    "state": "NC",
    "city": "FAYETTEVILLE",
    "egrid_subregion": "SRVC"
  },
  {
    "name": "COLEMAN CABLE LLC EAST FACILITY",
    "lat": 41.458544,
    "lon": -86.152534,
    "naics": "331420",
    "sector": "Aluminum",
    "state": "IN",
    "city": "BREMEN",
    "egrid_subregion": "RFCW"
  },
  {
    "name": "HOEGANAES CORP",
    "lat": 36.374914,
    "lon": -86.42201,
    "naics": "331110",
    "sector": "Iron & Steel",
    "state": "TN",
    "city": "GALLATIN",
    "egrid_subregion": "SRTV"
  },
  {
    "name": "MISSISSIPPI SILICON LLC",
    "lat": 34.805902,
    "lon": -88.335447,
    "naics": "331410",
    "sector": "Aluminum",
    "state": "MS",
    "city": "BURNSVILLE",
    "egrid_subregion": "SRTV"
  },
  {
    "name": "A FINKL & SONS CO DBA FINKL STEEL - CHICAGO",
    "lat": 41.725845,
    "lon": -87.590906,
    "naics": "331110",
    "sector": "Iron & Steel",
    "state": "IL",
    "city": "CHICAGO",
    "egrid_subregion": "RFCW"
  },
  {
    "name": "ARDAGH GLASS INC",
    "lat": 36.923814,
    "lon": -120.102611,
    "naics": "327213",
    "sector": "Glass",
    "state": "CA",
    "city": "MADERA",
    "egrid_subregion": "CAMX"
  },
  {
    "name": "LEHIGH SPECIALTY MELTING INC",
    "lat": 40.309538,
    "lon": -79.382296,
    "naics": "331110",
    "sector": "Iron & Steel",
    "state": "PA",
    "city": "LATROBE",
    "egrid_subregion": "RFCW"
  },
  {
    "name": "REPUBLIC STEEL WIRE PROCESSING",
    "lat": 41.387088,
    "lon": -81.460313,
    "naics": "331222",
    "sector": "Iron & Steel",
    "state": "OH",
    "city": "SOLON",
    "egrid_subregion": "RFCW"
  },
  {
    "name": "HOLCIM - RAVENA CEMENT PLANT",
    "lat": 42.504604,
    "lon": -73.820621,
    "naics": "327310",
    "sector": "Cement",
    "state": "NY",
    "city": "RAVENA",
    "egrid_subregion": "NYUP"
  },
  {
    "name": "TOWERJAZZ TEXAS",
    "lat": 29.470267,
    "lon": -98.675033,
    "naics": "334413",
    "sector": "Solar",
    "state": "TX",
    "city": "SAN ANTONIO",
    "egrid_subregion": "ERCT"
  },
  {
    "name": "NACHURS ALPINE SOLUTIONS",
    "lat": 41.020966,
    "lon": -95.232881,
    "naics": "325314",
    "sector": "Fertilizer",
    "state": "IA",
    "city": "RED OAK",
    "egrid_subregion": "MROW"
  },
  {
    "name": "ENVIROFOCUS TECHNOLOGIES",
    "lat": 27.962367,
    "lon": -82.381174,
    "naics": "331492",
    "sector": "Aluminum",
    "state": "FL",
    "city": "TAMPA",
    "egrid_subregion": "FRCC"
  },
  {
    "name": "THE CHEMOURS CO",
    "lat": 27.917202,
    "lon": -97.281407,
    "naics": "325120",
    "sector": "Hydrogen",
    "state": "TX",
    "city": "GREGORY",
    "egrid_subregion": "ERCT"
  },
  {
    "name": "ESSEX SOLUTIONS USA LLC",
    "lat": 35.893265,
    "lon": -86.873052,
    "naics": "331318",
    "sector": "Aluminum",
    "state": "TN",
    "city": "FRANKLIN",
    "egrid_subregion": "SRTV"
  },
  {
    "name": "KENNAMETAL INC",
    "lat": 36.288674,
    "lon": -78.398978,
    "naics": "331492",
    "sector": "Aluminum",
    "state": "NC",
    "city": "HENDERSON",
    "egrid_subregion": "SRVC"
  },
  {
    "name": "VISTA METALS CORP.",
    "lat": 34.094557,
    "lon": -117.512221,
    "naics": "331314",
    "sector": "Aluminum",
    "state": "CA",
    "city": "FONTANA",
    "egrid_subregion": "CAMX"
  },
  {
    "name": "SIMPLOT PHOSPHATES LLC",
    "lat": 41.582883,
    "lon": -109.217405,
    "naics": "325312",
    "sector": "Fertilizer",
    "state": "WY",
    "city": "ROCK SPRINGS",
    "egrid_subregion": "NWPP"
  },
  {
    "name": "STEEL TECHNOLOGIES LLC",
    "lat": 41.008473,
    "lon": -84.035522,
    "naics": "331221",
    "sector": "Iron & Steel",
    "state": "OH",
    "city": "OTTAWA",
    "egrid_subregion": "RFCW"
  },
  {
    "name": "CMX METALS",
    "lat": 33.989773,
    "lon": -118.268008,
    "naics": "331410",
    "sector": "Aluminum",
    "state": "CA",
    "city": "LOS ANGELES",
    "egrid_subregion": "CAMX"
  },
  {
    "name": "OLDCASTLE BUILDING ENVELOPE - TENNESSEE FACILITY",
    "lat": 36.196759,
    "lon": -83.010977,
    "naics": "331318",
    "sector": "Aluminum",
    "state": "TN",
    "city": "MIDWAY",
    "egrid_subregion": "SRTV"
  },
  {
    "name": "MATALCO USA LLC",
    "lat": 41.189573,
    "lon": -80.857633,
    "naics": "331314",
    "sector": "Aluminum",
    "state": "OH",
    "city": "WARREN",
    "egrid_subregion": "RFCW"
  },
  {
    "name": "SOLVENTUM PURIFICATION INC. MERIDEN FACILITY",
    "lat": 41.515128,
    "lon": -72.765933,
    "naics": "331410",
    "sector": "Aluminum",
    "state": "CT",
    "city": "MERIDEN",
    "egrid_subregion": "NEWE"
  },
  {
    "name": "HOLCIM (US) INC",
    "lat": 45.064795,
    "lon": -83.426441,
    "naics": "327310",
    "sector": "Cement",
    "state": "MI",
    "city": "ALPENA",
    "egrid_subregion": "RFCM"
  },
  {
    "name": "CLEVELAND-CLIFFS INC.",
    "lat": 39.500536,
    "lon": -84.392006,
    "naics": "331110",
    "sector": "Iron & Steel",
    "state": "OH",
    "city": "MIDDLETOWN",
    "egrid_subregion": "RFCW"
  },
  {
    "name": "SUMMIT INTERCONNECT INC",
    "lat": 33.834674,
    "lon": -117.94737,
    "naics": "334412",
    "sector": "Solar",
    "state": "CA",
    "city": "ANAHEIM",
    "egrid_subregion": "CAMX"
  },
  {
    "name": "VALLOUREC STAR LP",
    "lat": 41.126458,
    "lon": -80.679334,
    "naics": "331110",
    "sector": "Iron & Steel",
    "state": "OH",
    "city": "YOUNGSTOWN",
    "egrid_subregion": "RFCW"
  },
  {
    "name": "HUDSON TECHNOLOGIES CO",
    "lat": 40.156252,
    "lon": -88.276999,
    "naics": "325120",
    "sector": "Hydrogen",
    "state": "IL",
    "city": "CHAMPAIGN",
    "egrid_subregion": "SRMW"
  },
  {
    "name": "TERRA INTERNATIONAL (OKLAHOMA) LLC.",
    "lat": 36.440202,
    "lon": -99.47091,
    "naics": "325311",
    "sector": "Fertilizer",
    "state": "OK",
    "city": "WOODWARD",
    "egrid_subregion": "SPSO"
  },
  {
    "name": "SUPERIOR ESSEX INTERNATIONAL INC.",
    "lat": 38.521497,
    "lon": -98.777801,
    "naics": "331420",
    "sector": "Aluminum",
    "state": "KS",
    "city": "HOISINGTON",
    "egrid_subregion": "SPNO"
  },
  {
    "name": "ARCONIC US LLC",
    "lat": 41.539121,
    "lon": -90.464384,
    "naics": "331314",
    "sector": "Aluminum",
    "state": "IA",
    "city": "BETTENDORF",
    "egrid_subregion": "MROW"
  },
  {
    "name": "JUPITER SULPHUR LLC",
    "lat": 36.676679,
    "lon": -97.079391,
    "naics": "325311",
    "sector": "Fertilizer",
    "state": "OK",
    "city": "PONCA CITY",
    "egrid_subregion": "SPSO"
  },
  {
    "name": "STATE OF THE ART,INC.",
    "lat": 40.851223,
    "lon": -77.853422,
    "naics": "334416",
    "sector": "Solar",
    "state": "PA",
    "city": "STATE COLLEGE",
    "egrid_subregion": "RFCW"
  },
  {
    "name": "SCHLUMBERGER TECHNOLOGY CORP LAWRENCE TECHNOLOGY CENTER",
    "lat": 38.998018,
    "lon": -95.263463,
    "naics": "331420",
    "sector": "Aluminum",
    "state": "KS",
    "city": "LAWRENCE",
    "egrid_subregion": "SPNO"
  },
  {
    "name": "AMERICAN STANDARD CIRCUITS IN C.",
    "lat": 41.891091,
    "lon": -88.233882,
    "naics": "334412",
    "sector": "Solar",
    "state": "IL",
    "city": "WEST CHICAGO",
    "egrid_subregion": "RFCW"
  },
  {
    "name": "REPUBLIC STEEL -  LACKAWANNA",
    "lat": 42.802538,
    "lon": -78.846305,
    "naics": "331110",
    "sector": "Iron & Steel",
    "state": "NY",
    "city": "BLASDELL",
    "egrid_subregion": "NYUP"
  },
  {
    "name": "REAL ALLOY SPECIALITY PRODUCTS LLC",
    "lat": 41.658641,
    "lon": -80.845647,
    "naics": "331314",
    "sector": "Aluminum",
    "state": "OH",
    "city": "ROCK CREEK",
    "egrid_subregion": "RFCW"
  },
  {
    "name": "HEIDELBERG MATERIALS US CEMENT LLC",
    "lat": 40.732213,
    "lon": -86.432167,
    "naics": "327310",
    "sector": "Cement",
    "state": "IN",
    "city": "LOGANSPORT",
    "egrid_subregion": "RFCW"
  },
  {
    "name": "KNOX FERTILIZER CO INC",
    "lat": 41.288158,
    "lon": -86.646827,
    "naics": "325314",
    "sector": "Fertilizer",
    "state": "IN",
    "city": "KNOX",
    "egrid_subregion": "RFCW"
  },
  {
    "name": "THE ANDERSONS UPPER SANDUSKY TERMINAL",
    "lat": 40.846913,
    "lon": -83.32119,
    "naics": "325311",
    "sector": "Fertilizer",
    "state": "OH",
    "city": "UPPER SANDUSKY",
    "egrid_subregion": "RFCW"
  },
  {
    "name": "MATALCO KENTUCKY LLC",
    "lat": 36.744754,
    "lon": -86.566474,
    "naics": "331314",
    "sector": "Aluminum",
    "state": "KY",
    "city": "FRANKLIN",
    "egrid_subregion": "SRTV"
  },
  {
    "name": "CC METALS & ALLOYS LLC",
    "lat": 37.056941,
    "lon": -88.354478,
    "naics": "331110",
    "sector": "Iron & Steel",
    "state": "KY",
    "city": "CALVERT CITY",
    "egrid_subregion": "SRTV"
  },
  {
    "name": "SMOKY MOUNTAIN METALS INC",
    "lat": 35.826583,
    "lon": -83.952311,
    "naics": "331420",
    "sector": "Aluminum",
    "state": "TN",
    "city": "MARYVILLE",
    "egrid_subregion": "SRTV"
  },
  {
    "name": "MUNTERS CORP",
    "lat": 26.579132,
    "lon": -81.856371,
    "naics": "331313",
    "sector": "Aluminum",
    "state": "FL",
    "city": "FORT MYERS",
    "egrid_subregion": "FRCC"
  },
  {
    "name": "ILLINOIS CEMENT CO",
    "lat": 41.328386,
    "lon": -89.080577,
    "naics": "327310",
    "sector": "Cement",
    "state": "IL",
    "city": "LA SALLE",
    "egrid_subregion": "SRMW"
  },
  {
    "name": "AGC AUTOMOTIVE AMERICAS CO.",
    "lat": 40.362472,
    "lon": -83.788902,
    "naics": "327215",
    "sector": "Glass",
    "state": "OH",
    "city": "BELLEFONTAINE",
    "egrid_subregion": "RFCW"
  },
  {
    "name": "ELECTRONIC INTERCONNECT CORP.",
    "lat": 42.009233,
    "lon": -87.942493,
    "naics": "334412",
    "sector": "Solar",
    "state": "IL",
    "city": "ELK GROVE VILLAGE",
    "egrid_subregion": "RFCW"
  },
  {
    "name": "REA MAGNET WIRE CO",
    "lat": 41.068825,
    "lon": -85.084066,
    "naics": "331420",
    "sector": "Aluminum",
    "state": "IN",
    "city": "FORT WAYNE",
    "egrid_subregion": "RFCW"
  },
  {
    "name": "DELTA GROUP ELECTRONICS INC",
    "lat": 36.069144,
    "lon": -94.20515,
    "naics": "334418",
    "sector": "Solar",
    "state": "AR",
    "city": "FAYETTEVILLE",
    "egrid_subregion": "SPSO"
  },
  {
    "name": "THOMAS CONCRETE - BUCKHEAD",
    "lat": 33.812963,
    "lon": -84.364075,
    "naics": "331491",
    "sector": "Aluminum",
    "state": "GA",
    "city": "ATLANTA",
    "egrid_subregion": "SRSO"
  },
  {
    "name": "NUCOR TUBULAR PRODUCTS INC.",
    "lat": 41.323714,
    "lon": -88.690851,
    "naics": "331210",
    "sector": "Iron & Steel",
    "state": "IL",
    "city": "MARSEILLES",
    "egrid_subregion": "SRMW"
  },
  {
    "name": "NXP USA - CHANDLER",
    "lat": 33.324667,
    "lon": -111.859249,
    "naics": "334413",
    "sector": "Solar",
    "state": "AZ",
    "city": "CHANDLER",
    "egrid_subregion": "AZNM"
  },
  {
    "name": "LIBERTY STEEL GEORGETOWN INC.",
    "lat": 33.3701,
    "lon": -79.288661,
    "naics": "331110",
    "sector": "Iron & Steel",
    "state": "SC",
    "city": "GEORGETOWN",
    "egrid_subregion": "SRVC"
  },
  {
    "name": "MICRON TECHNOLOGY INC",
    "lat": 43.528815,
    "lon": -116.150233,
    "naics": "334413",
    "sector": "Solar",
    "state": "ID",
    "city": "BOISE",
    "egrid_subregion": "NWPP"
  },
  {
    "name": "KENNAMETAL INC DBA KENNAMETAL FIRTH STERLING",
    "lat": 34.698638,
    "lon": -86.697294,
    "naics": "331492",
    "sector": "Aluminum",
    "state": "AL",
    "city": "HUNTSVILLE",
    "egrid_subregion": "SRTV"
  },
  {
    "name": "BASIN ELECTRIC ANTELOPE VALLEY STATION",
    "lat": 47.333036,
    "lon": -101.791723,
    "naics": "325311",
    "sector": "Fertilizer",
    "state": "ND",
    "city": "BEULAH",
    "egrid_subregion": "MROW"
  },
  {
    "name": "NUTRIEN AG SOLUTIONS",
    "lat": 35.887636,
    "lon": -119.500753,
    "naics": "325314",
    "sector": "Fertilizer",
    "state": "CA",
    "city": "ALPAUGH",
    "egrid_subregion": "CAMX"
  },
  {
    "name": "HOEGANAES CORP",
    "lat": 41.058282,
    "lon": -76.832018,
    "naics": "331110",
    "sector": "Iron & Steel",
    "state": "PA",
    "city": "WATSONTOWN",
    "egrid_subregion": "RFCE"
  },
  {
    "name": "EVERRIS NA INC. SUMMERVILLE SITE",
    "lat": 33.052795,
    "lon": -80.234407,
    "naics": "325314",
    "sector": "Fertilizer",
    "state": "SC",
    "city": "SUMMERVILLE",
    "egrid_subregion": "SRVC"
  },
  {
    "name": "INFINITUM ELECTRIC INC.",
    "lat": 42.793787,
    "lon": -71.52725,
    "naics": "334412",
    "sector": "Solar",
    "state": "NH",
    "city": "NASHUA",
    "egrid_subregion": "NEWE"
  },
  {
    "name": "BUZZI UNICEM USA-GREENCASTLE PLANT",
    "lat": 39.610862,
    "lon": -86.878761,
    "naics": "327310",
    "sector": "Cement",
    "state": "IN",
    "city": "GREENCASTLE",
    "egrid_subregion": "RFCW"
  },
  {
    "name": "ALEXANDRIA EXTRUSION CO",
    "lat": 45.896816,
    "lon": -95.391715,
    "naics": "331318",
    "sector": "Aluminum",
    "state": "MN",
    "city": "ALEXANDRIA",
    "egrid_subregion": "MROW"
  },
  {
    "name": "SKYLINE STEEL LLC-CAMP HILL",
    "lat": 40.214524,
    "lon": -76.939572,
    "naics": "331210",
    "sector": "Iron & Steel",
    "state": "PA",
    "city": "CAMP HILL",
    "egrid_subregion": "RFCE"
  },
  {
    "name": "MINTEQ/SPECIALTY MINERALS",
    "lat": 42.02643,
    "lon": -73.319651,
    "naics": "331491",
    "sector": "Aluminum",
    "state": "CT",
    "city": "NORTH CANAAN",
    "egrid_subregion": "NEWE"
  },
  {
    "name": "CLEVELAND-CLIFFS STEEL LLC",
    "lat": 41.654194,
    "lon": -87.446804,
    "naics": "331110",
    "sector": "Iron & Steel",
    "state": "IN",
    "city": "EAST CHICAGO",
    "egrid_subregion": "RFCW"
  },
  {
    "name": "UNIVERSAL ALLOY CORP",
    "lat": 34.242135,
    "lon": -84.474179,
    "naics": "331318",
    "sector": "Aluminum",
    "state": "GA",
    "city": "CANTON",
    "egrid_subregion": "SRSO"
  },
  {
    "name": "HEIDELBERG MATERIALS US CEMENT LLC",
    "lat": 39.559177,
    "lon": -77.167277,
    "naics": "327310",
    "sector": "Cement",
    "state": "MD",
    "city": "UNION BRIDGE",
    "egrid_subregion": "RFCE"
  },
  {
    "name": "CLEVELAND-CLIFFS RIVERDALE LLC",
    "lat": 41.648325,
    "lon": -87.624689,
    "naics": "331110",
    "sector": "Iron & Steel",
    "state": "IL",
    "city": "RIVERDALE",
    "egrid_subregion": "RFCW"
  },
  {
    "name": "SIERRA ALUMINUM CO PLANT II",
    "lat": 34.037665,
    "lon": -117.518381,
    "naics": "331318",
    "sector": "Aluminum",
    "state": "CA",
    "city": "FONTANA",
    "egrid_subregion": "CAMX"
  },
  {
    "name": "KOCH FERTILIZER ENID LLC",
    "lat": 36.409463,
    "lon": -97.855859,
    "naics": "325311",
    "sector": "Fertilizer",
    "state": "OK",
    "city": "ENID",
    "egrid_subregion": "SPSO"
  },
  {
    "name": "ASH GROVE CEMENT CO",
    "lat": 44.497498,
    "lon": -117.441558,
    "naics": "327310",
    "sector": "Cement",
    "state": "OR",
    "city": "DURKEE",
    "egrid_subregion": "NWPP"
  },
  {
    "name": "LAMBCON INC.",
    "lat": 35.078877,
    "lon": -85.067892,
    "naics": "327310",
    "sector": "Cement",
    "state": "TN",
    "city": "OOLTEWAH",
    "egrid_subregion": "SRTV"
  },
  {
    "name": "GORILLA CIRCUITS",
    "lat": 37.371118,
    "lon": -121.897439,
    "naics": "334412",
    "sector": "Solar",
    "state": "CA",
    "city": "SAN JOSE",
    "egrid_subregion": "CAMX"
  },
  {
    "name": "FELKER BROTHERS CORP. PLANT 2",
    "lat": 37.004395,
    "lon": -85.936058,
    "naics": "331210",
    "sector": "Iron & Steel",
    "state": "KY",
    "city": "GLASGOW",
    "egrid_subregion": "SRTV"
  },
  {
    "name": "CTS ELECTRONIC COMPONENTS INC",
    "lat": 35.184392,
    "lon": -106.593483,
    "naics": "334419",
    "sector": "Solar",
    "state": "NM",
    "city": "ALBUQUERQUE",
    "egrid_subregion": "AZNM"
  },
  {
    "name": "JOHNS MANVILLE PLANT 01",
    "lat": 41.528477,
    "lon": -83.708905,
    "naics": "327212",
    "sector": "Glass",
    "state": "OH",
    "city": "WATERVILLE",
    "egrid_subregion": "RFCW"
  },
  {
    "name": "HEIDELBERG MATERIALS US CEMENT LLC",
    "lat": 38.743577,
    "lon": -86.457193,
    "naics": "327310",
    "sector": "Cement",
    "state": "IN",
    "city": "MITCHELL",
    "egrid_subregion": "RFCW"
  },
  {
    "name": "GUARDIAN INDUSTRIES LLC",
    "lat": 36.546736,
    "lon": -119.581636,
    "naics": "327211",
    "sector": "Glass",
    "state": "CA",
    "city": "KINGSBURG",
    "egrid_subregion": "CAMX"
  },
  {
    "name": "ESSEX SOLUTIONS MAGNET WIRE USA LLC",
    "lat": 39.522897,
    "lon": -86.063852,
    "naics": "331420",
    "sector": "Aluminum",
    "state": "IN",
    "city": "FRANKLIN",
    "egrid_subregion": "RFCW"
  },
  {
    "name": "MILWARD ALLOYS INC",
    "lat": 43.184985,
    "lon": -78.696943,
    "naics": "331420",
    "sector": "Aluminum",
    "state": "NY",
    "city": "LOCKPORT",
    "egrid_subregion": "NYUP"
  },
  {
    "name": "MOSAIC FERTILIZER LLC-NEW WALES PLANT",
    "lat": 27.850613,
    "lon": -82.053398,
    "naics": "325312",
    "sector": "Fertilizer",
    "state": "FL",
    "city": "MULBERRY",
    "egrid_subregion": "FRCC"
  },
  {
    "name": "CARDINAL GLASS",
    "lat": 45.631611,
    "lon": -121.517322,
    "naics": "327215",
    "sector": "Glass",
    "state": "OR",
    "city": "HOOD RIVER",
    "egrid_subregion": "NWPP"
  },
  {
    "name": "NUCOR STEEL",
    "lat": 39.974977,
    "lon": -86.823194,
    "naics": "331110",
    "sector": "Iron & Steel",
    "state": "IN",
    "city": "CRAWFORDSVILLE",
    "egrid_subregion": "RFCW"
  },
  {
    "name": "VERSUM MATERIALS US LLC",
    "lat": 40.83829,
    "lon": -76.032511,
    "naics": "325120",
    "sector": "Hydrogen",
    "state": "PA",
    "city": "TAMAQUA",
    "egrid_subregion": "RFCE"
  },
  {
    "name": "SIPI METALS CORP.",
    "lat": 41.913695,
    "lon": -87.664398,
    "naics": "331492",
    "sector": "Aluminum",
    "state": "IL",
    "city": "CHICAGO",
    "egrid_subregion": "RFCW"
  },
  {
    "name": "SAMSUNG AUSTIN SEMICONDUCTOR",
    "lat": 30.372376,
    "lon": -97.634144,
    "naics": "334413",
    "sector": "Solar",
    "state": "TX",
    "city": "AUSTIN",
    "egrid_subregion": "ERCT"
  },
  {
    "name": "MAPES PIANO STRING CO",
    "lat": 36.350401,
    "lon": -82.216851,
    "naics": "331222",
    "sector": "Iron & Steel",
    "state": "TN",
    "city": "ELIZABETHTON",
    "egrid_subregion": "SRTV"
  },
  {
    "name": "CEMEX CONSTRUCTION MATERIALS SOUTH LLC - BALCONES PLANT",
    "lat": 29.674636,
    "lon": -98.178053,
    "naics": "327310",
    "sector": "Cement",
    "state": "TX",
    "city": "NEW BRAUNFELS",
    "egrid_subregion": "ERCT"
  },
  {
    "name": "BEFESA ZINC US INC.",
    "lat": 35.866787,
    "lon": -84.696274,
    "naics": "331492",
    "sector": "Aluminum",
    "state": "TN",
    "city": "ROCKWOOD",
    "egrid_subregion": "SRTV"
  },
  {
    "name": "CLEVELAND-CLIFFS STEEL LLC",
    "lat": 41.659885,
    "lon": -87.466031,
    "naics": "331110",
    "sector": "Iron & Steel",
    "state": "IN",
    "city": "EAST CHICAGO",
    "egrid_subregion": "RFCW"
  },
  {
    "name": "MOUNTAIN CEMENT CO",
    "lat": 41.266794,
    "lon": -105.601031,
    "naics": "327310",
    "sector": "Cement",
    "state": "WY",
    "city": "LARAMIE",
    "egrid_subregion": "RMPA"
  },
  {
    "name": "CATALYTIC INNOVATIONS",
    "lat": 37.973445,
    "lon": -91.751908,
    "naics": "325314",
    "sector": "Fertilizer",
    "state": "MO",
    "city": "ROLLA",
    "egrid_subregion": "SRMW"
  },
  {
    "name": "LENTHOR  ENGINEERING",
    "lat": 37.426584,
    "lon": -121.897451,
    "naics": "334412",
    "sector": "Solar",
    "state": "CA",
    "city": "MILPITAS",
    "egrid_subregion": "CAMX"
  },
  {
    "name": "EAU CLAIRE CO-OPERATIVE OIL CO",
    "lat": 44.846886,
    "lon": -91.569368,
    "naics": "325314",
    "sector": "Fertilizer",
    "state": "WI",
    "city": "EAU CLAIRE",
    "egrid_subregion": "MROW"
  },
  {
    "name": "TURF CARE SUPPLY LLC.",
    "lat": 40.136848,
    "lon": -80.71413,
    "naics": "325314",
    "sector": "Fertilizer",
    "state": "OH",
    "city": "MARTINS FERRY",
    "egrid_subregion": "RFCW"
  },
  {
    "name": "KOSMOS CEMENT CO LLC",
    "lat": 38.035289,
    "lon": -85.910931,
    "naics": "327310",
    "sector": "Cement",
    "state": "KY",
    "city": "LOUISVILLE",
    "egrid_subregion": "SRTV"
  },
  {
    "name": "KENNECOTT UTAH COPPER SMELTER & REFINERY",
    "lat": 40.725526,
    "lon": -112.082283,
    "naics": "331410",
    "sector": "Aluminum",
    "state": "UT",
    "city": "MAGNA",
    "egrid_subregion": "NWPP"
  },
  {
    "name": "SUMIDEN WIRE PRODUCTS",
    "lat": 36.054119,
    "lon": -87.349826,
    "naics": "331222",
    "sector": "Iron & Steel",
    "state": "TN",
    "city": "DICKSON",
    "egrid_subregion": "SRTV"
  },
  {
    "name": "JOHNSON MANUFACTURING CO",
    "lat": 41.677226,
    "lon": -90.340336,
    "naics": "331491",
    "sector": "Aluminum",
    "state": "IA",
    "city": "PRINCETON",
    "egrid_subregion": "MROW"
  },
  {
    "name": "WESTINGHOUSE ELECTRIC CO",
    "lat": 40.441089,
    "lon": -79.306662,
    "naics": "331491",
    "sector": "Aluminum",
    "state": "PA",
    "city": "BLAIRSVILLE",
    "egrid_subregion": "RFCE"
  },
  {
    "name": "NEHRING ELECTRICAL WORKS CO",
    "lat": 41.928734,
    "lon": -88.743906,
    "naics": "331420",
    "sector": "Aluminum",
    "state": "IL",
    "city": "DE KALB",
    "egrid_subregion": "RFCW"
  },
  {
    "name": "CONECSUS LLC",
    "lat": 32.726576,
    "lon": -96.314838,
    "naics": "331492",
    "sector": "Aluminum",
    "state": "TX",
    "city": "TERRELL",
    "egrid_subregion": "ERCT"
  },
  {
    "name": "REAL ALLOY SPECIFICATION LLC",
    "lat": 41.927285,
    "lon": -85.021108,
    "naics": "331314",
    "sector": "Aluminum",
    "state": "MI",
    "city": "COLDWATER",
    "egrid_subregion": "RFCM"
  },
  {
    "name": "SHELL CHEMICAL APPALACHIA LLC",
    "lat": 40.664868,
    "lon": -80.332578,
    "naics": "331492",
    "sector": "Aluminum",
    "state": "PA",
    "city": "MONACA",
    "egrid_subregion": "RFCW"
  },
  {
    "name": "AGC AUTOMOTIVE AMERICAS",
    "lat": 37.668324,
    "lon": -85.9202,
    "naics": "327215",
    "sector": "Glass",
    "state": "KY",
    "city": "ELIZABETHTOWN",
    "egrid_subregion": "SRTV"
  },
  {
    "name": "NUCOR STEEL SEATTLE INC",
    "lat": 47.568412,
    "lon": -122.36339,
    "naics": "331110",
    "sector": "Iron & Steel",
    "state": "WA",
    "city": "SEATTLE",
    "egrid_subregion": "NWPP"
  },
  {
    "name": "FORT WAYNE METALS RESEARCH PRODUCTS LLC (MCARTHUR SITE)",
    "lat": 41.010633,
    "lon": -85.180499,
    "naics": "331491",
    "sector": "Aluminum",
    "state": "IN",
    "city": "FORT WAYNE",
    "egrid_subregion": "RFCW"
  },
  {
    "name": "ATCO RUBBER PRODUCTS INC.",
    "lat": 34.402357,
    "lon": -85.031787,
    "naics": "331222",
    "sector": "Iron & Steel",
    "state": "GA",
    "city": "PLAINVILLE",
    "egrid_subregion": "SRSO"
  },
  {
    "name": "NUCOR STEEL SEDALIA LLC",
    "lat": 38.701883,
    "lon": -93.23068,
    "naics": "331110",
    "sector": "Iron & Steel",
    "state": "MO",
    "city": "SEDALIA",
    "egrid_subregion": "SRMW"
  },
  {
    "name": "FORT WAYNE METALS RESEARCH PRODUCTS LLC  (ARDMORE SITE)",
    "lat": 40.99567,
    "lon": -85.190938,
    "naics": "331222",
    "sector": "Iron & Steel",
    "state": "IN",
    "city": "FORT WAYNE",
    "egrid_subregion": "RFCW"
  },
  {
    "name": "QUALITEK INC (DBA WESTAK)",
    "lat": 37.407259,
    "lon": -121.991961,
    "naics": "334412",
    "sector": "Solar",
    "state": "CA",
    "city": "SUNNYVALE",
    "egrid_subregion": "CAMX"
  },
  {
    "name": "JESSOP STEEL LLC",
    "lat": 40.178344,
    "lon": -80.26824,
    "naics": "331110",
    "sector": "Iron & Steel",
    "state": "PA",
    "city": "WASHINGTON",
    "egrid_subregion": "RFCW"
  },
  {
    "name": "POTTERS INDUSTRIES LLC",
    "lat": 41.482663,
    "lon": -81.680081,
    "naics": "327215",
    "sector": "Glass",
    "state": "OH",
    "city": "CLEVELAND",
    "egrid_subregion": "RFCW"
  },
  {
    "name": "CERRO FLOW PRODUCTS LLC",
    "lat": 39.695864,
    "lon": -92.052973,
    "naics": "331420",
    "sector": "Aluminum",
    "state": "MO",
    "city": "SHELBINA",
    "egrid_subregion": "SRMW"
  },
  {
    "name": "ZEKELMAN INDUSTRIES WHEATLAND TUBE DIVISION-WARREN",
    "lat": 41.257758,
    "lon": -80.808542,
    "naics": "331210",
    "sector": "Iron & Steel",
    "state": "OH",
    "city": "WARREN",
    "egrid_subregion": "RFCW"
  },
  {
    "name": "VIBRANTZ CORP",
    "lat": 40.090788,
    "lon": -75.343798,
    "naics": "334419",
    "sector": "Solar",
    "state": "PA",
    "city": "KING OF PRUSSIA",
    "egrid_subregion": "RFCE"
  },
  {
    "name": "LUVATA APPLETON LLC",
    "lat": 44.26355,
    "lon": -88.349494,
    "naics": "331420",
    "sector": "Aluminum",
    "state": "WI",
    "city": "KIMBERLY",
    "egrid_subregion": "RFCW"
  },
  {
    "name": "ANKER INDUSTRIES",
    "lat": 40.421202,
    "lon": -79.816385,
    "naics": "331313",
    "sector": "Aluminum",
    "state": "PA",
    "city": "TURTLE CREEK",
    "egrid_subregion": "RFCW"
  },
  {
    "name": "QUALITY CIRCUITS INC",
    "lat": 46.295585,
    "lon": -96.09873,
    "naics": "334412",
    "sector": "Solar",
    "state": "MN",
    "city": "FERGUS FALLS",
    "egrid_subregion": "MROW"
  },
  {
    "name": "REVERE COPPER PRODUCTS INC.",
    "lat": 43.218359,
    "lon": -75.45287,
    "naics": "331420",
    "sector": "Aluminum",
    "state": "NY",
    "city": "ROME",
    "egrid_subregion": "NYUP"
  },
  {
    "name": "ALCOA WORLD ALUMINA LLC",
    "lat": 28.67324,
    "lon": -96.560951,
    "naics": "331313",
    "sector": "Aluminum",
    "state": "TX",
    "city": "POINT COMFORT",
    "egrid_subregion": "ERCT"
  },
  {
    "name": "ASH GROVE CEMENT CO",
    "lat": 37.69826,
    "lon": -95.45279,
    "naics": "327310",
    "sector": "Cement",
    "state": "KS",
    "city": "CHANUTE",
    "egrid_subregion": "SPNO"
  },
  {
    "name": "NIAGARA LASALLE CORP-HAMMOND PLANT",
    "lat": 41.623086,
    "lon": -87.493994,
    "naics": "331221",
    "sector": "Iron & Steel",
    "state": "IN",
    "city": "HAMMOND",
    "egrid_subregion": "RFCW"
  },
  {
    "name": "SANMINA PLANT # 2",
    "lat": 37.376982,
    "lon": -121.917068,
    "naics": "334412",
    "sector": "Solar",
    "state": "CA",
    "city": "SAN JOSE",
    "egrid_subregion": "CAMX"
  },
  {
    "name": "STEEL DYNAMICS INC-FLAT ROLL DIV",
    "lat": 41.3704,
    "lon": -84.908079,
    "naics": "331110",
    "sector": "Iron & Steel",
    "state": "IN",
    "city": "BUTLER",
    "egrid_subregion": "RFCW"
  },
  {
    "name": "OWENS-BROCKWAY GLASS CONTAINER INC PLANT 19",
    "lat": 41.248236,
    "lon": -78.745442,
    "naics": "327213",
    "sector": "Glass",
    "state": "PA",
    "city": "BROCKPORT",
    "egrid_subregion": "RFCE"
  },
  {
    "name": "TWIN K - READY MIX - PLANT 3",
    "lat": 35.620957,
    "lon": -84.731045,
    "naics": "327310",
    "sector": "Cement",
    "state": "TN",
    "city": "DECATUR",
    "egrid_subregion": "SRTV"
  },
  {
    "name": "NOV QUALITY TUBING",
    "lat": 29.863593,
    "lon": -95.128016,
    "naics": "331210",
    "sector": "Iron & Steel",
    "state": "TX",
    "city": "HOUSTON",
    "egrid_subregion": "ERCT"
  },
  {
    "name": "WORTHINGTON SAMUEL COIL PROCESSING",
    "lat": 41.464651,
    "lon": -81.661513,
    "naics": "331221",
    "sector": "Iron & Steel",
    "state": "OH",
    "city": "CLEVELAND",
    "egrid_subregion": "RFCW"
  },
  {
    "name": "ALLEIMA PRECISION TUBE",
    "lat": 40.115831,
    "lon": -79.62691,
    "naics": "331210",
    "sector": "Iron & Steel",
    "state": "PA",
    "city": "SCOTTDALE",
    "egrid_subregion": "RFCW"
  },
  {
    "name": "CENTRAL WIRE (DUMAS DIVISION)",
    "lat": 33.873629,
    "lon": -91.481643,
    "naics": "331420",
    "sector": "Aluminum",
    "state": "AR",
    "city": "DUMAS",
    "egrid_subregion": "SRMV"
  },
  {
    "name": "ARCONIC US LLC",
    "lat": 35.814782,
    "lon": -83.977446,
    "naics": "331315",
    "sector": "Aluminum",
    "state": "TN",
    "city": "ALCOA",
    "egrid_subregion": "SRTV"
  },
  {
    "name": "NOVELIS CORP-GREENSBORO",
    "lat": 33.558784,
    "lon": -83.202798,
    "naics": "331314",
    "sector": "Aluminum",
    "state": "GA",
    "city": "GREENSBORO",
    "egrid_subregion": "SRSO"
  },
  {
    "name": "REPUBLIC CONDUIT MANUFACTURING",
    "lat": 38.170704,
    "lon": -85.888668,
    "naics": "331210",
    "sector": "Iron & Steel",
    "state": "KY",
    "city": "LOUISVILLE",
    "egrid_subregion": "SRTV"
  },
  {
    "name": "FERROGLOBE USA METALLURGICAL INC",
    "lat": 32.372696,
    "lon": -86.993513,
    "naics": "331110",
    "sector": "Iron & Steel",
    "state": "AL",
    "city": "SELMA",
    "egrid_subregion": "SRSO"
  },
  {
    "name": "US STEEL CORP GREAT LAKES WORKS",
    "lat": 42.25621,
    "lon": -83.134235,
    "naics": "331110",
    "sector": "Iron & Steel",
    "state": "MI",
    "city": "ECORSE",
    "egrid_subregion": "RFCM"
  },
  {
    "name": "BRISTOL METALS LP",
    "lat": 36.542816,
    "lon": -82.185171,
    "naics": "331210",
    "sector": "Iron & Steel",
    "state": "TN",
    "city": "BRISTOL",
    "egrid_subregion": "SRTV"
  },
  {
    "name": "BIG RIVER STEEL LLC",
    "lat": 35.653941,
    "lon": -89.948548,
    "naics": "331110",
    "sector": "Iron & Steel",
    "state": "AR",
    "city": "OSCEOLA",
    "egrid_subregion": "SRMV"
  },
  {
    "name": "LND INC",
    "lat": 40.632007,
    "lon": -73.653313,
    "naics": "334419",
    "sector": "Solar",
    "state": "NY",
    "city": "OCEANSIDE",
    "egrid_subregion": "NYLI"
  },
  {
    "name": "SANMINA -   BLDG # 4",
    "lat": 37.389794,
    "lon": -121.930368,
    "naics": "334412",
    "sector": "Solar",
    "state": "CA",
    "city": "SAN JOSE",
    "egrid_subregion": "CAMX"
  },
  {
    "name": "HELM FERTILIZER TERMINAL INC.",
    "lat": 34.523679,
    "lon": -90.590653,
    "naics": "325314",
    "sector": "Fertilizer",
    "state": "AR",
    "city": "HELENA",
    "egrid_subregion": "SRMV"
  },
  {
    "name": "BRAEBURN ALLOY STEEL LLC",
    "lat": 40.612989,
    "lon": -79.71476,
    "naics": "331221",
    "sector": "Iron & Steel",
    "state": "PA",
    "city": "LOWER BURRELL",
    "egrid_subregion": "RFCW"
  },
  {
    "name": "CENTRAL PLAINS CEMENT CO",
    "lat": 36.196584,
    "lon": -95.815746,
    "naics": "327310",
    "sector": "Cement",
    "state": "OK",
    "city": "TULSA",
    "egrid_subregion": "SPSO"
  },
  {
    "name": "HYDRO ALUMINUM METALS USA LLC",
    "lat": 37.811953,
    "lon": -87.658306,
    "naics": "331314",
    "sector": "Aluminum",
    "state": "KY",
    "city": "HENDERSON",
    "egrid_subregion": "SRTV"
  },
  {
    "name": "AIR PRODUCTS WEST COAST HYDROGEN - HP-1",
    "lat": 38.012459,
    "lon": -122.106598,
    "naics": "325120",
    "sector": "Hydrogen",
    "state": "CA",
    "city": "MARTINEZ",
    "egrid_subregion": "CAMX"
  },
  {
    "name": "BUICK RESOURCE RECYCLING FACILITY LLC",
    "lat": 37.61993,
    "lon": -91.128774,
    "naics": "331492",
    "sector": "Aluminum",
    "state": "MO",
    "city": "BOSS",
    "egrid_subregion": "SRMW"
  },
  {
    "name": "ESSEX GROUP INC CHEMICAL PROCESSING PLANT",
    "lat": 41.070689,
    "lon": -85.157924,
    "naics": "331420",
    "sector": "Aluminum",
    "state": "IN",
    "city": "FORT WAYNE",
    "egrid_subregion": "RFCW"
  },
  {
    "name": "WOLFSPEED - MOHAWK VALLEY FAB",
    "lat": 43.142709,
    "lon": -75.23531,
    "naics": "334413",
    "sector": "Solar",
    "state": "NY",
    "city": "MARCY",
    "egrid_subregion": "NYUP"
  },
  {
    "name": "SMI STEEL LLC DBA CMC STEEL ALABAMA",
    "lat": 33.534463,
    "lon": -86.760273,
    "naics": "331110",
    "sector": "Iron & Steel",
    "state": "AL",
    "city": "BIRMINGHAM",
    "egrid_subregion": "SRSO"
  },
  {
    "name": "GREER STEEL CO",
    "lat": 40.516145,
    "lon": -81.461878,
    "naics": "331221",
    "sector": "Iron & Steel",
    "state": "OH",
    "city": "DOVER",
    "egrid_subregion": "RFCW"
  },
  {
    "name": "WESTERN ZIRCONIUM",
    "lat": 41.249719,
    "lon": -112.079096,
    "naics": "331410",
    "sector": "Aluminum",
    "state": "UT",
    "city": "OGDEN",
    "egrid_subregion": "NWPP"
  },
  {
    "name": "KEYMARK CORP. OF FLORIDA",
    "lat": 28.080448,
    "lon": -81.997487,
    "naics": "331318",
    "sector": "Aluminum",
    "state": "FL",
    "city": "LAKELAND",
    "egrid_subregion": "FRCC"
  },
  {
    "name": "ATI SPECIALTY ALLOYS & COMPONENTS LLC",
    "lat": 44.654272,
    "lon": -123.062485,
    "naics": "331410",
    "sector": "Aluminum",
    "state": "OR",
    "city": "ALBANY",
    "egrid_subregion": "NWPP"
  },
  {
    "name": "TITAN PENNSUCO COMPLEX",
    "lat": 25.877757,
    "lon": -80.370073,
    "naics": "327310",
    "sector": "Cement",
    "state": "FL",
    "city": "MEDLEY",
    "egrid_subregion": "FRCC"
  },
  {
    "name": "MM METALS USA LLC",
    "lat": 40.160201,
    "lon": -74.747303,
    "naics": "331110",
    "sector": "Iron & Steel",
    "state": "PA",
    "city": "FAIRLESS HILLS",
    "egrid_subregion": "RFCE"
  },
  {
    "name": "GERDAU MACSTEEL MONROE",
    "lat": 41.897062,
    "lon": -83.361518,
    "naics": "331110",
    "sector": "Iron & Steel",
    "state": "MI",
    "city": "MONROE",
    "egrid_subregion": "RFCM"
  },
  {
    "name": "ELGILOY SPECIALTY METALS",
    "lat": 41.995129,
    "lon": -88.693364,
    "naics": "331491",
    "sector": "Aluminum",
    "state": "IL",
    "city": "SYCAMORE",
    "egrid_subregion": "RFCW"
  },
  {
    "name": "NORTH AMERICAN HOGANAS HIGH ALLOYS LLC",
    "lat": 40.29449,
    "lon": -78.917264,
    "naics": "331492",
    "sector": "Aluminum",
    "state": "PA",
    "city": "JOHNSTOWN",
    "egrid_subregion": "RFCE"
  },
  {
    "name": "ARGOS NEWBERRY PLANT",
    "lat": 29.689846,
    "lon": -82.574518,
    "naics": "327310",
    "sector": "Cement",
    "state": "FL",
    "city": "NEWBERRY",
    "egrid_subregion": "FRCC"
  },
  {
    "name": "CLEVELAND-CLIFFS CLEVELAND WORKS LLC",
    "lat": 41.463923,
    "lon": -81.666543,
    "naics": "331110",
    "sector": "Iron & Steel",
    "state": "OH",
    "city": "CLEVELAND",
    "egrid_subregion": "RFCW"
  },
  {
    "name": "SMC PRECIOUS METALS SMELTER & BASE METALS REFINERY",
    "lat": 45.61756,
    "lon": -109.27682,
    "naics": "331410",
    "sector": "Aluminum",
    "state": "MT",
    "city": "COLUMBUS",
    "egrid_subregion": "NWPP"
  },
  {
    "name": "DUCOMMUN LABARGE  TECHNOLOGIES,INC.",
    "lat": 36.089887,
    "lon": -95.847148,
    "naics": "334412",
    "sector": "Solar",
    "state": "OK",
    "city": "TULSA",
    "egrid_subregion": "SPSO"
  },
  {
    "name": "ARCONIC US LLC",
    "lat": 40.403815,
    "lon": -86.862299,
    "naics": "331318",
    "sector": "Aluminum",
    "state": "IN",
    "city": "LAFAYETTE",
    "egrid_subregion": "RFCW"
  },
  {
    "name": "CHARTER STEEL-SAUKVILLE",
    "lat": 43.396995,
    "lon": -87.948798,
    "naics": "331110",
    "sector": "Iron & Steel",
    "state": "WI",
    "city": "SAUKVILLE",
    "egrid_subregion": "RFCW"
  },
  {
    "name": "COMMONWEALTH ROLLED PRODUCTS INC",
    "lat": 37.950302,
    "lon": -86.852443,
    "naics": "331314",
    "sector": "Aluminum",
    "state": "KY",
    "city": "LEWISPORT",
    "egrid_subregion": "SRTV"
  },
  {
    "name": "CENTRAL WIRE",
    "lat": 33.752975,
    "lon": -117.235283,
    "naics": "331222",
    "sector": "Iron & Steel",
    "state": "CA",
    "city": "PERRIS",
    "egrid_subregion": "CAMX"
  },
  {
    "name": "CUSTOM ELECTRONICS INC.",
    "lat": 42.451353,
    "lon": -75.109305,
    "naics": "334416",
    "sector": "Solar",
    "state": "NY",
    "city": "ONEONTA",
    "egrid_subregion": "NYUP"
  },
  {
    "name": "METALLIX REFINING  INC.",
    "lat": 35.645052,
    "lon": -77.362088,
    "naics": "331492",
    "sector": "Aluminum",
    "state": "NC",
    "city": "GREENVILLE",
    "egrid_subregion": "SRVC"
  },
  {
    "name": "TRI STAR METALS LLC",
    "lat": 42.258632,
    "lon": -89.627302,
    "naics": "331222",
    "sector": "Iron & Steel",
    "state": "IL",
    "city": "FREEPORT",
    "egrid_subregion": "RFCW"
  },
  {
    "name": "CMC STEEL FABRICATORS INC. DBA CMC STEEL ARKANSAS",
    "lat": 33.275829,
    "lon": -93.239538,
    "naics": "331110",
    "sector": "Iron & Steel",
    "state": "AR",
    "city": "MAGNOLIA",
    "egrid_subregion": "SRMV"
  },
  {
    "name": "NOVELIS",
    "lat": 36.669467,
    "lon": -87.169602,
    "naics": "331315",
    "sector": "Aluminum",
    "state": "KY",
    "city": "GUTHRIE",
    "egrid_subregion": "SRTV"
  },
  {
    "name": "HONEYWELL ELEC MATERIALS",
    "lat": 40.800677,
    "lon": -80.199714,
    "naics": "331410",
    "sector": "Aluminum",
    "state": "PA",
    "city": "FOMBELL",
    "egrid_subregion": "RFCW"
  },
  {
    "name": "INTELLITEC LLC",
    "lat": 29.054128,
    "lon": -81.281206,
    "naics": "334418",
    "sector": "Solar",
    "state": "FL",
    "city": "DELAND",
    "egrid_subregion": "FRCC"
  },
  {
    "name": "CORNELL DUBILIER MARKETING INC.",
    "lat": 34.816485,
    "lon": -82.698734,
    "naics": "334416",
    "sector": "Solar",
    "state": "SC",
    "city": "LIBERTY",
    "egrid_subregion": "SRVC"
  },
  {
    "name": "NORTH AMERICAN HOGANAS",
    "lat": 40.19137,
    "lon": -78.935682,
    "naics": "331110",
    "sector": "Iron & Steel",
    "state": "PA",
    "city": "HOLLSOPPLE",
    "egrid_subregion": "RFCE"
  },
  {
    "name": "AMG TITANIUM LLC",
    "lat": 41.012415,
    "lon": -80.386456,
    "naics": "331410",
    "sector": "Aluminum",
    "state": "PA",
    "city": "NEW CASTLE",
    "egrid_subregion": "RFCE"
  },
  {
    "name": "WORTHINGTON STEEL CO",
    "lat": 41.612538,
    "lon": -87.103035,
    "naics": "331221",
    "sector": "Iron & Steel",
    "state": "IN",
    "city": "PORTER",
    "egrid_subregion": "RFCW"
  },
  {
    "name": "METALLURGICAL PRODUCTS CO",
    "lat": 39.971643,
    "lon": -75.593888,
    "naics": "331420",
    "sector": "Aluminum",
    "state": "PA",
    "city": "WEST CHESTER",
    "egrid_subregion": "RFCE"
  },
  {
    "name": "RIVER CEMENT CO (DBA BUZZI UNICEM USA)",
    "lat": 38.180646,
    "lon": -90.334628,
    "naics": "327310",
    "sector": "Cement",
    "state": "MO",
    "city": "FESTUS",
    "egrid_subregion": "SRMW"
  },
  {
    "name": "TTM TECHNOLOGIES N.A. LLC.",
    "lat": 39.020879,
    "lon": -77.431079,
    "naics": "334412",
    "sector": "Solar",
    "state": "VA",
    "city": "DULLES",
    "egrid_subregion": "SRVC"
  },
  {
    "name": "SYPRIS ELECTRONICS LLC",
    "lat": 28.043751,
    "lon": -82.422058,
    "naics": "334418",
    "sector": "Solar",
    "state": "FL",
    "city": "TAMPA",
    "egrid_subregion": "FRCC"
  },
  {
    "name": "KAISER ALUMINUM WARRICK LLC",
    "lat": 37.931671,
    "lon": -87.322807,
    "naics": "331315",
    "sector": "Aluminum",
    "state": "IN",
    "city": "NEWBURGH",
    "egrid_subregion": "RFCW"
  },
  {
    "name": "ELECTRUM RECOVERY WORKS INC.",
    "lat": 40.593101,
    "lon": -74.275565,
    "naics": "331492",
    "sector": "Aluminum",
    "state": "NJ",
    "city": "RAHWAY",
    "egrid_subregion": "RFCE"
  },
  {
    "name": "ANAREN MICROWAVE INC",
    "lat": 43.076663,
    "lon": -76.062226,
    "naics": "334418",
    "sector": "Solar",
    "state": "NY",
    "city": "EAST SYRACUSE",
    "egrid_subregion": "NYUP"
  },
  {
    "name": "TENARIS BAY CITY INC.",
    "lat": 29.007811,
    "lon": -95.900553,
    "naics": "331210",
    "sector": "Iron & Steel",
    "state": "TX",
    "city": "BAY CITY",
    "egrid_subregion": "ERCT"
  },
  {
    "name": "ONSEMI",
    "lat": 41.544622,
    "lon": -73.828679,
    "naics": "334413",
    "sector": "Solar",
    "state": "NY",
    "city": "HOPEWELL JUNCTION",
    "egrid_subregion": "NYUP"
  },
  {
    "name": "MATERION BRUSH INC",
    "lat": 40.492024,
    "lon": -75.964073,
    "naics": "331420",
    "sector": "Aluminum",
    "state": "PA",
    "city": "SHOEMAKERSVILLE",
    "egrid_subregion": "RFCE"
  },
  {
    "name": "KISWIRE INC",
    "lat": 34.286449,
    "lon": -81.547086,
    "naics": "331222",
    "sector": "Iron & Steel",
    "state": "SC",
    "city": "NEWBERRY",
    "egrid_subregion": "SRVC"
  },
  {
    "name": "REAL ALLOY SPECIFICATION LLC",
    "lat": 40.79521,
    "lon": -85.880299,
    "naics": "331314",
    "sector": "Aluminum",
    "state": "IN",
    "city": "WABASH",
    "egrid_subregion": "RFCW"
  },
  {
    "name": "SERVICE WIRE CULLODEN",
    "lat": 38.41631,
    "lon": -82.052423,
    "naics": "331420",
    "sector": "Aluminum",
    "state": "WV",
    "city": "CULLODEN",
    "egrid_subregion": "RFCW"
  },
  {
    "name": "CARDINAL IG - FREMONT",
    "lat": 41.718014,
    "lon": -84.931312,
    "naics": "327215",
    "sector": "Glass",
    "state": "IN",
    "city": "FREMONT",
    "egrid_subregion": "RFCW"
  },
  {
    "name": "CAPITOL AGGREGATES INC.",
    "lat": 29.543936,
    "lon": -98.4168,
    "naics": "327310",
    "sector": "Cement",
    "state": "TX",
    "city": "SAN ANTONIO",
    "egrid_subregion": "ERCT"
  },
  {
    "name": "WIELAND ROLLED PRODUCTS N.A. - EAST ALTON MAIN PLAN",
    "lat": 38.886449,
    "lon": -90.110774,
    "naics": "331420",
    "sector": "Aluminum",
    "state": "IL",
    "city": "EAST ALTON",
    "egrid_subregion": "SRMW"
  },
  {
    "name": "LANGELOTH METALLURGICAL CO",
    "lat": 40.364384,
    "lon": -80.411454,
    "naics": "331110",
    "sector": "Iron & Steel",
    "state": "PA",
    "city": "LANGELOTH",
    "egrid_subregion": "RFCW"
  },
  {
    "name": "MDA MANUFACTURING INC",
    "lat": 34.630059,
    "lon": -87.038497,
    "naics": "325120",
    "sector": "Hydrogen",
    "state": "AL",
    "city": "DECATUR",
    "egrid_subregion": "SRTV"
  },
  {
    "name": "WESTERN EXTRUSIONS CORP",
    "lat": 32.968487,
    "lon": -96.921311,
    "naics": "331318",
    "sector": "Aluminum",
    "state": "TX",
    "city": "CARROLLTON",
    "egrid_subregion": "ERCT"
  },
  {
    "name": "ATI FLAT ROLLED PRODUCTS LLC-LATROBE PLANT",
    "lat": 40.328396,
    "lon": -79.375647,
    "naics": "331110",
    "sector": "Iron & Steel",
    "state": "PA",
    "city": "LATROBE",
    "egrid_subregion": "RFCW"
  },
  {
    "name": "ALTRONIC LLC",
    "lat": 41.141205,
    "lon": -80.676853,
    "naics": "334418",
    "sector": "Solar",
    "state": "OH",
    "city": "GIRARD",
    "egrid_subregion": "RFCW"
  },
  {
    "name": "GLOBAL TUNGSTEN & POWDERS LLC",
    "lat": 41.787938,
    "lon": -76.447584,
    "naics": "331410",
    "sector": "Aluminum",
    "state": "PA",
    "city": "TOWANDA",
    "egrid_subregion": "RFCE"
  },
  {
    "name": "HONEYWELL INTERNATIONAL INC GEISMAR PLANT",
    "lat": 30.222843,
    "lon": -91.057633,
    "naics": "325120",
    "sector": "Hydrogen",
    "state": "LA",
    "city": "CARVILLE",
    "egrid_subregion": "SRMV"
  },
  {
    "name": "BANNER MEDICAL",
    "lat": 41.274817,
    "lon": -85.871805,
    "naics": "331491",
    "sector": "Aluminum",
    "state": "IN",
    "city": "WARSAW",
    "egrid_subregion": "RFCW"
  },
  {
    "name": "CROSSROADS SEAMLESS USA LLC",
    "lat": 41.055012,
    "lon": -86.622932,
    "naics": "331210",
    "sector": "Iron & Steel",
    "state": "IN",
    "city": "WINAMAC",
    "egrid_subregion": "RFCW"
  },
  {
    "name": "NUTRIEN US LLC",
    "lat": 35.641571,
    "lon": -101.428666,
    "naics": "325311",
    "sector": "Fertilizer",
    "state": "TX",
    "city": "BORGER",
    "egrid_subregion": "SPSO"
  },
  {
    "name": "PMX INDUSTRIES INC",
    "lat": 41.927161,
    "lon": -91.691183,
    "naics": "331420",
    "sector": "Aluminum",
    "state": "IA",
    "city": "CEDAR RAPIDS",
    "egrid_subregion": "MROW"
  },
  {
    "name": "GROW MORE INC.",
    "lat": 33.858519,
    "lon": -118.204246,
    "naics": "325314",
    "sector": "Fertilizer",
    "state": "CA",
    "city": "EAST RANCHO DOMINGUEZ",
    "egrid_subregion": "CAMX"
  },
  {
    "name": "KALAS MANUFACTURING INC PLANT 2",
    "lat": 40.22429,
    "lon": -76.111469,
    "naics": "331420",
    "sector": "Aluminum",
    "state": "PA",
    "city": "DENVER",
    "egrid_subregion": "RFCE"
  },
  {
    "name": "WILBUR ELLIS WOODBURN",
    "lat": 45.145209,
    "lon": -122.853026,
    "naics": "325314",
    "sector": "Fertilizer",
    "state": "OR",
    "city": "WOODBURN",
    "egrid_subregion": "NWPP"
  },
  {
    "name": "KEYSTONE CEMENT CO",
    "lat": 40.709061,
    "lon": -75.405886,
    "naics": "327310",
    "sector": "Cement",
    "state": "PA",
    "city": "BATH",
    "egrid_subregion": "RFCE"
  },
  {
    "name": "COLEMAN CABLE LLC",
    "lat": 41.45007,
    "lon": -86.150647,
    "naics": "331420",
    "sector": "Aluminum",
    "state": "IN",
    "city": "BREMEN",
    "egrid_subregion": "RFCW"
  },
  {
    "name": "NXP USA INC. - ED BLUESTEIN FACILITY",
    "lat": 30.26994,
    "lon": -97.669111,
    "naics": "334413",
    "sector": "Solar",
    "state": "TX",
    "city": "AUSTIN",
    "egrid_subregion": "ERCT"
  },
  {
    "name": "PROFILE CUSTOM EXTRUSIONS LLC",
    "lat": 34.206059,
    "lon": -85.191013,
    "naics": "331318",
    "sector": "Aluminum",
    "state": "GA",
    "city": "ROME",
    "egrid_subregion": "SRSO"
  },
  {
    "name": "ITAFOS CONDA LLC",
    "lat": 42.734056,
    "lon": -111.547006,
    "naics": "325312",
    "sector": "Fertilizer",
    "state": "ID",
    "city": "SODA SPRINGS",
    "egrid_subregion": "NWPP"
  },
  {
    "name": "AIR PRODUCTS & CHEMICALS INC/DETROIT HYDROGEN FACILITY",
    "lat": 42.287024,
    "lon": -83.155522,
    "naics": "325120",
    "sector": "Hydrogen",
    "state": "MI",
    "city": "DETROIT",
    "egrid_subregion": "RFCM"
  },
  {
    "name": "DYNAMET INC",
    "lat": 40.206173,
    "lon": -80.252417,
    "naics": "331491",
    "sector": "Aluminum",
    "state": "PA",
    "city": "WASHINGTON",
    "egrid_subregion": "RFCW"
  },
  {
    "name": "WIELAND ROLLED PRODUCTS N.A. - WATERBURY FACILITY",
    "lat": 41.534331,
    "lon": -73.032562,
    "naics": "331420",
    "sector": "Aluminum",
    "state": "CT",
    "city": "WATERBURY",
    "egrid_subregion": "NEWE"
  },
  {
    "name": "KOCH FERTILIZER WEVER LLC",
    "lat": 40.695852,
    "lon": -91.236419,
    "naics": "325311",
    "sector": "Fertilizer",
    "state": "IA",
    "city": "WEVER",
    "egrid_subregion": "SRMW"
  },
  {
    "name": "OUTOKUMPU STAINLESS USA LLC",
    "lat": 31.15076,
    "lon": -87.991692,
    "naics": "331110",
    "sector": "Iron & Steel",
    "state": "AL",
    "city": "CALVERT",
    "egrid_subregion": "SRSO"
  },
  {
    "name": "PCS PHOSPHATE CO INC",
    "lat": 35.377017,
    "lon": -76.748558,
    "naics": "325312",
    "sector": "Fertilizer",
    "state": "NC",
    "city": "AURORA",
    "egrid_subregion": "SRVC"
  },
  {
    "name": "CERRO WIRE LLC",
    "lat": 41.296568,
    "lon": -112.009724,
    "naics": "331318",
    "sector": "Aluminum",
    "state": "UT",
    "city": "OGDEN",
    "egrid_subregion": "NWPP"
  },
  {
    "name": "GARFIELD FACILITY LLC",
    "lat": 40.158023,
    "lon": -85.420939,
    "naics": "331492",
    "sector": "Aluminum",
    "state": "IN",
    "city": "MUNCIE",
    "egrid_subregion": "RFCW"
  },
  {
    "name": "HEADWAY TECHNOLOGIES INC.",
    "lat": 37.427403,
    "lon": -121.892501,
    "naics": "334419",
    "sector": "Solar",
    "state": "CA",
    "city": "MILPITAS",
    "egrid_subregion": "CAMX"
  },
  {
    "name": "PRECISION KIDD STEEL CO",
    "lat": 40.60254,
    "lon": -80.282718,
    "naics": "331222",
    "sector": "Iron & Steel",
    "state": "PA",
    "city": "WEST ALIQUIPPA",
    "egrid_subregion": "RFCW"
  },
  {
    "name": "CLEVELAND-CLIFFS COLUMBUS LLC",
    "lat": 39.904313,
    "lon": -82.945075,
    "naics": "331110",
    "sector": "Iron & Steel",
    "state": "OH",
    "city": "COLUMBUS",
    "egrid_subregion": "RFCW"
  },
  {
    "name": "HARRELL'S COATINGS SOLUTIONS LLC",
    "lat": 33.173229,
    "lon": -86.27492,
    "naics": "325314",
    "sector": "Fertilizer",
    "state": "AL",
    "city": "SYLACAUGA",
    "egrid_subregion": "SRSO"
  },
  {
    "name": "ASTRO SHAPES LLC",
    "lat": 41.057334,
    "lon": -80.589153,
    "naics": "331318",
    "sector": "Aluminum",
    "state": "OH",
    "city": "STRUTHERS",
    "egrid_subregion": "RFCW"
  },
  {
    "name": "MOUNTAIN RIDGE METALS LLC.",
    "lat": 40.539181,
    "lon": -76.924787,
    "naics": "331318",
    "sector": "Aluminum",
    "state": "PA",
    "city": "MILLERSBURG",
    "egrid_subregion": "RFCE"
  },
  {
    "name": "OWENS-BROCKWAY GLASS CONTAINER INC - PLANT #06",
    "lat": 35.949746,
    "lon": -80.2194,
    "naics": "327213",
    "sector": "Glass",
    "state": "NC",
    "city": "LEXINGTON",
    "egrid_subregion": "SRVC"
  },
  {
    "name": "GCC RIO GRANDE INC",
    "lat": 38.159132,
    "lon": -104.635732,
    "naics": "327310",
    "sector": "Cement",
    "state": "CO",
    "city": "PUEBLO",
    "egrid_subregion": "RMPA"
  },
  {
    "name": "PLYMOUTH TUBE CO",
    "lat": 32.497472,
    "lon": -92.164757,
    "naics": "331210",
    "sector": "Iron & Steel",
    "state": "LA",
    "city": "WEST MONROE",
    "egrid_subregion": "SRMV"
  },
  {
    "name": "TE CONNECTIVITY-MOUNT JOY",
    "lat": 40.110782,
    "lon": -76.464734,
    "naics": "334417",
    "sector": "Solar",
    "state": "PA",
    "city": "MOUNT JOY",
    "egrid_subregion": "RFCE"
  },
  {
    "name": "U.S. CIRCUIT INC.  EPA ID# CAR000155887",
    "lat": 33.115134,
    "lon": -117.114995,
    "naics": "334412",
    "sector": "Solar",
    "state": "CA",
    "city": "ESCONDIDO",
    "egrid_subregion": "CAMX"
  },
  {
    "name": "EEI MANUFACTURING SERVICE",
    "lat": 27.952655,
    "lon": -82.797214,
    "naics": "334418",
    "sector": "Solar",
    "state": "FL",
    "city": "CLEARWATER",
    "egrid_subregion": "FRCC"
  },
  {
    "name": "HYDRO EXTRUSION USA LLC",
    "lat": 34.25304,
    "lon": -83.856951,
    "naics": "331318",
    "sector": "Aluminum",
    "state": "GA",
    "city": "GAINESVILLE",
    "egrid_subregion": "SRSO"
  },
  {
    "name": "HARRELLS INC.",
    "lat": 33.17312,
    "lon": -86.291311,
    "naics": "325314",
    "sector": "Fertilizer",
    "state": "AL",
    "city": "SYLACAUGA",
    "egrid_subregion": "SRSO"
  },
  {
    "name": "MATALCO BLUFFTON LLC",
    "lat": 40.721528,
    "lon": -85.203199,
    "naics": "331314",
    "sector": "Aluminum",
    "state": "IN",
    "city": "BLUFFTON",
    "egrid_subregion": "RFCW"
  },
  {
    "name": "BASF METALS LLC",
    "lat": 34.651022,
    "lon": -82.955717,
    "naics": "331492",
    "sector": "Aluminum",
    "state": "SC",
    "city": "SENECA",
    "egrid_subregion": "SRVC"
  },
  {
    "name": "ENGINEERED MATERIALS SOLUTIONS  LLC",
    "lat": 41.949922,
    "lon": -71.271657,
    "naics": "331221",
    "sector": "Iron & Steel",
    "state": "MA",
    "city": "ATTLEBORO",
    "egrid_subregion": "NEWE"
  },
  {
    "name": "UNIVERSAL STAINLESS & ALLOY PRODUCTS INC",
    "lat": 40.366381,
    "lon": -80.100483,
    "naics": "331221",
    "sector": "Iron & Steel",
    "state": "PA",
    "city": "BRIDGEVILLE",
    "egrid_subregion": "RFCW"
  },
  {
    "name": "ARCELORMITTAL TUBULAR PRODUCTS USA LLC",
    "lat": 40.881283,
    "lon": -82.667399,
    "naics": "331210",
    "sector": "Iron & Steel",
    "state": "OH",
    "city": "SHELBY",
    "egrid_subregion": "RFCW"
  },
  {
    "name": "NEWPORT FAB LLC (DBA TOWERJAZZ)",
    "lat": 33.662477,
    "lon": -117.858034,
    "naics": "334413",
    "sector": "Solar",
    "state": "CA",
    "city": "NEWPORT BEACH",
    "egrid_subregion": "CAMX"
  },
  {
    "name": "ARDAGH GLASS INC",
    "lat": 41.817338,
    "lon": -78.288466,
    "naics": "327213",
    "sector": "Glass",
    "state": "PA",
    "city": "PORT ALLEGANY",
    "egrid_subregion": "RFCE"
  },
  {
    "name": "NUCOR STEEL-ARKANSAS",
    "lat": 35.944251,
    "lon": -89.721833,
    "naics": "331110",
    "sector": "Iron & Steel",
    "state": "AR",
    "city": "BLYTHEVILLE",
    "egrid_subregion": "SRMV"
  },
  {
    "name": "HYDRO EXTRUSION USA LLC",
    "lat": 40.63429,
    "lon": -76.191341,
    "naics": "331318",
    "sector": "Aluminum",
    "state": "PA",
    "city": "CRESSONA",
    "egrid_subregion": "RFCE"
  },
  {
    "name": "STEEL TECHNOLOGIES LC",
    "lat": 31.863206,
    "lon": -106.692979,
    "naics": "331221",
    "sector": "Iron & Steel",
    "state": "NM",
    "city": "SANTA TERESA",
    "egrid_subregion": "AZNM"
  },
  {
    "name": "J R SIMPLOT CO",
    "lat": 36.546052,
    "lon": -120.109494,
    "naics": "325311",
    "sector": "Fertilizer",
    "state": "CA",
    "city": "HELM",
    "egrid_subregion": "CAMX"
  },
  {
    "name": "FELKER BROTHERS",
    "lat": 37.030879,
    "lon": -85.929611,
    "naics": "331210",
    "sector": "Iron & Steel",
    "state": "KY",
    "city": "GLASGOW",
    "egrid_subregion": "SRTV"
  },
  {
    "name": "EASTERN ALLOYS INC",
    "lat": 41.508168,
    "lon": -74.203792,
    "naics": "331492",
    "sector": "Aluminum",
    "state": "NY",
    "city": "MAYBROOK",
    "egrid_subregion": "NYUP"
  },
  {
    "name": "ROCHESTER SILVER WORKS LLC",
    "lat": 43.202474,
    "lon": -77.645724,
    "naics": "331492",
    "sector": "Aluminum",
    "state": "NY",
    "city": "ROCHESTER",
    "egrid_subregion": "NYUP"
  },
  {
    "name": "JOHNSTOWN WIRE TECHNOLOGIES INC.",
    "lat": 40.349053,
    "lon": -78.940869,
    "naics": "331222",
    "sector": "Iron & Steel",
    "state": "PA",
    "city": "JOHNSTOWN",
    "egrid_subregion": "RFCE"
  },
  {
    "name": "PRESTOLITE ELECTRIC INC",
    "lat": 42.533742,
    "lon": -78.429605,
    "naics": "334419",
    "sector": "Solar",
    "state": "NY",
    "city": "ARCADE",
    "egrid_subregion": "NYUP"
  },
  {
    "name": "A-GAS US INC",
    "lat": 33.033451,
    "lon": -97.451526,
    "naics": "325120",
    "sector": "Hydrogen",
    "state": "TX",
    "city": "RHOME",
    "egrid_subregion": "ERCT"
  },
  {
    "name": "STEEL DYNAMICS INC FLAT ROLL GROUP COLUMBUS DIV",
    "lat": 33.451632,
    "lon": -88.582884,
    "naics": "331110",
    "sector": "Iron & Steel",
    "state": "MS",
    "city": "COLUMBUS",
    "egrid_subregion": "SRTV"
  },
  {
    "name": "FRITZ PRODUCTS",
    "lat": 42.275385,
    "lon": -83.12121,
    "naics": "331314",
    "sector": "Aluminum",
    "state": "MI",
    "city": "RIVER ROUGE",
    "egrid_subregion": "RFCM"
  },
  {
    "name": "GREENVILLE METALS INC",
    "lat": 41.352821,
    "lon": -80.401386,
    "naics": "331492",
    "sector": "Aluminum",
    "state": "PA",
    "city": "TRANSFER",
    "egrid_subregion": "RFCW"
  },
  {
    "name": "VICTORY WHITE METAL CO",
    "lat": 41.476116,
    "lon": -81.651325,
    "naics": "331491",
    "sector": "Aluminum",
    "state": "OH",
    "city": "CLEVELAND",
    "egrid_subregion": "RFCW"
  },
  {
    "name": "VITRO FLAT GLASS LLC WORKS 4",
    "lat": 33.999134,
    "lon": -98.54722,
    "naics": "327211",
    "sector": "Glass",
    "state": "TX",
    "city": "WICHITA FALLS",
    "egrid_subregion": "ERCT"
  },
  {
    "name": "MUELLER BRASS CO",
    "lat": 42.977695,
    "lon": -82.450207,
    "naics": "331420",
    "sector": "Aluminum",
    "state": "MI",
    "city": "PORT HURON",
    "egrid_subregion": "RFCM"
  },
  {
    "name": "HUNTINGTON ALLOYS CORP",
    "lat": 38.272104,
    "lon": -82.581359,
    "naics": "331491",
    "sector": "Aluminum",
    "state": "KY",
    "city": "CATLETTSBURG",
    "egrid_subregion": "RFCW"
  },
  {
    "name": "AIR PRODUCTS & CHEMICALS INC (MARTINEZ-WATERFRONT ROAD)",
    "lat": 38.030148,
    "lon": -122.079963,
    "naics": "325120",
    "sector": "Hydrogen",
    "state": "CA",
    "city": "MARTINEZ",
    "egrid_subregion": "CAMX"
  },
  {
    "name": "EGA SPECTRO ALLOYS",
    "lat": 44.75731,
    "lon": -93.011383,
    "naics": "331314",
    "sector": "Aluminum",
    "state": "MN",
    "city": "ROSEMOUNT",
    "egrid_subregion": "MROW"
  },
  {
    "name": "RATHGIBSON NORTH BRANCH",
    "lat": 40.594302,
    "lon": -74.680626,
    "naics": "331210",
    "sector": "Iron & Steel",
    "state": "NJ",
    "city": "NORTH BRANCH",
    "egrid_subregion": "RFCE"
  },
  {
    "name": "READING ALLOYS LLC",
    "lat": 40.344628,
    "lon": -76.119996,
    "naics": "331314",
    "sector": "Aluminum",
    "state": "PA",
    "city": "ROBESONIA",
    "egrid_subregion": "RFCE"
  },
  {
    "name": "BEKAERT CORP",
    "lat": 40.861993,
    "lon": -81.754823,
    "naics": "331221",
    "sector": "Iron & Steel",
    "state": "OH",
    "city": "ORRVILLE",
    "egrid_subregion": "RFCW"
  },
  {
    "name": "DYNO NOBEL INC-CHEYENNE PLANT",
    "lat": 41.097238,
    "lon": -104.907826,
    "naics": "325311",
    "sector": "Fertilizer",
    "state": "WY",
    "city": "CHEYENNE",
    "egrid_subregion": "RMPA"
  },
  {
    "name": "NUCOR STEEL MEMPHIS INC",
    "lat": 35.049083,
    "lon": -90.153323,
    "naics": "331110",
    "sector": "Iron & Steel",
    "state": "TN",
    "city": "MEMPHIS",
    "egrid_subregion": "SRTV"
  },
  {
    "name": "STOELZLE GLASS",
    "lat": 40.691193,
    "lon": -80.280759,
    "naics": "327212",
    "sector": "Glass",
    "state": "PA",
    "city": "MONACA",
    "egrid_subregion": "RFCW"
  },
  {
    "name": "WILBUR ELLIS MT VERNON",
    "lat": 48.448434,
    "lon": -122.471181,
    "naics": "325314",
    "sector": "Fertilizer",
    "state": "WA",
    "city": "MOUNT VERNON",
    "egrid_subregion": "NWPP"
  },
  {
    "name": "HOLCIM (US) INC HOLLY HILL PLANT",
    "lat": 33.275355,
    "lon": -80.434695,
    "naics": "327310",
    "sector": "Cement",
    "state": "SC",
    "city": "HOLLY HILL",
    "egrid_subregion": "SRVC"
  },
  {
    "name": "INTERNATIONAL CONTROL SERVICES INC.",
    "lat": 39.814904,
    "lon": -88.963649,
    "naics": "334418",
    "sector": "Solar",
    "state": "IL",
    "city": "DECATUR",
    "egrid_subregion": "SRMW"
  },
  {
    "name": "BERK-TEK LLC",
    "lat": 40.128189,
    "lon": -76.072547,
    "naics": "331420",
    "sector": "Aluminum",
    "state": "PA",
    "city": "NEW HOLLAND",
    "egrid_subregion": "RFCE"
  },
  {
    "name": "HOLCIM (US) INC.",
    "lat": 32.510863,
    "lon": -96.9755,
    "naics": "327310",
    "sector": "Cement",
    "state": "TX",
    "city": "MIDLOTHIAN",
    "egrid_subregion": "ERCT"
  },
  {
    "name": "MICHIGAN SEAMLESS TUBE LLC",
    "lat": 42.458175,
    "lon": -83.65631,
    "naics": "331210",
    "sector": "Iron & Steel",
    "state": "MI",
    "city": "SOUTH LYON",
    "egrid_subregion": "RFCM"
  },
  {
    "name": "PRIME METALS ACQUISITIONS LLC",
    "lat": 40.562015,
    "lon": -79.157269,
    "naics": "331110",
    "sector": "Iron & Steel",
    "state": "PA",
    "city": "HOMER CITY",
    "egrid_subregion": "RFCE"
  },
  {
    "name": "SUZUKI GARPHYTTAN CORP",
    "lat": 41.725342,
    "lon": -86.309648,
    "naics": "331222",
    "sector": "Iron & Steel",
    "state": "IN",
    "city": "SOUTH BEND",
    "egrid_subregion": "RFCW"
  },
  {
    "name": "BEAR METALLURGICAL CO",
    "lat": 40.8684,
    "lon": -79.866958,
    "naics": "331110",
    "sector": "Iron & Steel",
    "state": "PA",
    "city": "BUTLER",
    "egrid_subregion": "RFCE"
  },
  {
    "name": "STEEL TECHNOLOGIES LLC",
    "lat": 41.601316,
    "lon": -87.189515,
    "naics": "331221",
    "sector": "Iron & Steel",
    "state": "IN",
    "city": "PORTAGE",
    "egrid_subregion": "RFCW"
  },
  {
    "name": "WEBCO INDUSTRIES INC KELLYVILLE SPECIALTY TUBE",
    "lat": 35.9732,
    "lon": -96.194286,
    "naics": "331210",
    "sector": "Iron & Steel",
    "state": "OK",
    "city": "KELLYVILLE",
    "egrid_subregion": "SPSO"
  },
  {
    "name": "DRAGON PRODUCTS CO",
    "lat": 44.089014,
    "lon": -69.152569,
    "naics": "327310",
    "sector": "Cement",
    "state": "ME",
    "city": "THOMASTON",
    "egrid_subregion": "NEWE"
  },
  {
    "name": "REAL ALLOY SPECIALTY PRODUCTS LLC",
    "lat": 41.373525,
    "lon": -82.124816,
    "naics": "331314",
    "sector": "Aluminum",
    "state": "OH",
    "city": "ELYRIA",
    "egrid_subregion": "RFCW"
  },
  {
    "name": "AIRGAS NITROUS OXIDE",
    "lat": 32.83844,
    "lon": -90.438982,
    "naics": "325120",
    "sector": "Hydrogen",
    "state": "MS",
    "city": "YAZOO CITY",
    "egrid_subregion": "SRMV"
  },
  {
    "name": "ALLIED TUBE & CONDUIT",
    "lat": 33.477403,
    "lon": -112.117018,
    "naics": "331210",
    "sector": "Iron & Steel",
    "state": "AZ",
    "city": "PHOENIX",
    "egrid_subregion": "AZNM"
  },
  {
    "name": "GANNON & SCOTT",
    "lat": 41.74159,
    "lon": -71.450847,
    "naics": "331492",
    "sector": "Aluminum",
    "state": "RI",
    "city": "CRANSTON",
    "egrid_subregion": "NEWE"
  },
  {
    "name": "WHEATLAND TUBE WESTERN TUBE",
    "lat": 41.900979,
    "lon": -89.024671,
    "naics": "331210",
    "sector": "Iron & Steel",
    "state": "IL",
    "city": "ROCHELLE",
    "egrid_subregion": "RFCW"
  },
  {
    "name": "FERROGLOBE USA METALLURGICAL INC",
    "lat": 39.583131,
    "lon": -81.679134,
    "naics": "331110",
    "sector": "Iron & Steel",
    "state": "OH",
    "city": "WATERFORD",
    "egrid_subregion": "RFCW"
  },
  {
    "name": "SKYWATER TECHNOLOGY FOUNDRY INC",
    "lat": 44.847832,
    "lon": -93.237544,
    "naics": "334413",
    "sector": "Solar",
    "state": "MN",
    "city": "BLOOMINGTON",
    "egrid_subregion": "MROW"
  },
  {
    "name": "TEXAS INSTRUMENTS INC",
    "lat": 32.93132,
    "lon": -96.755648,
    "naics": "334413",
    "sector": "Solar",
    "state": "TX",
    "city": "DALLAS",
    "egrid_subregion": "ERCT"
  },
  {
    "name": "VITRO FLAT GLASS LLC CARLISLE PLANT",
    "lat": 40.129514,
    "lon": -77.173526,
    "naics": "327211",
    "sector": "Glass",
    "state": "PA",
    "city": "CARLISLE",
    "egrid_subregion": "RFCE"
  },
  {
    "name": "NUCOR TUBULAR PRODUCTS INC.",
    "lat": 34.658651,
    "lon": -87.081343,
    "naics": "331210",
    "sector": "Iron & Steel",
    "state": "AL",
    "city": "DECATUR",
    "egrid_subregion": "SRTV"
  },
  {
    "name": "CHICAGO CIRCUITS CORP",
    "lat": 41.987973,
    "lon": -87.945847,
    "naics": "334412",
    "sector": "Solar",
    "state": "IL",
    "city": "ELK GROVE VILLAGE",
    "egrid_subregion": "RFCW"
  },
  {
    "name": "ARDAGH GLASS INC",
    "lat": 32.545169,
    "lon": -92.766477,
    "naics": "327213",
    "sector": "Glass",
    "state": "LA",
    "city": "SIMSBORO",
    "egrid_subregion": "SRMV"
  },
  {
    "name": "VITRO MEADVILLE FLAT GLASS LLC",
    "lat": 41.53302,
    "lon": -80.209249,
    "naics": "327211",
    "sector": "Glass",
    "state": "PA",
    "city": "COCHRANTON",
    "egrid_subregion": "RFCE"
  },
  {
    "name": "LONE STAR INDUSTRIES DBA BUZZI UNICEM USA",
    "lat": 32.2434,
    "lon": -100.460471,
    "naics": "327310",
    "sector": "Cement",
    "state": "TX",
    "city": "MARYNEAL",
    "egrid_subregion": "ERCT"
  },
  {
    "name": "THE ANDERSONS INC - SIOUX CITY",
    "lat": 42.487595,
    "lon": -96.393285,
    "naics": "325312",
    "sector": "Fertilizer",
    "state": "IA",
    "city": "SIOUX CITY",
    "egrid_subregion": "MROW"
  },
  {
    "name": "AIR PRODUCTS LLC",
    "lat": 29.890207,
    "lon": -93.936936,
    "naics": "325120",
    "sector": "Hydrogen",
    "state": "TX",
    "city": "PORT ARTHUR",
    "egrid_subregion": "SRMV"
  },
  {
    "name": "ST MARYS CEMENT U.S. LLC",
    "lat": 45.307941,
    "lon": -85.307794,
    "naics": "327310",
    "sector": "Cement",
    "state": "MI",
    "city": "CHARLEVOIX",
    "egrid_subregion": "RFCM"
  },
  {
    "name": "INDUSTRIAL TUBE CORP",
    "lat": 40.527154,
    "lon": -74.647132,
    "naics": "331420",
    "sector": "Aluminum",
    "state": "NJ",
    "city": "HILLSBOROUGH",
    "egrid_subregion": "RFCE"
  },
  {
    "name": "AIR LIQUIDE ELECTRONICS U.S. LP",
    "lat": 40.174877,
    "lon": -74.77135,
    "naics": "325120",
    "sector": "Hydrogen",
    "state": "PA",
    "city": "MORRISVILLE",
    "egrid_subregion": "RFCE"
  },
  {
    "name": "OLDCASTLE BUILDING ENVELOPE - TEXAS FACILITY",
    "lat": 32.720164,
    "lon": -96.270096,
    "naics": "331318",
    "sector": "Aluminum",
    "state": "TX",
    "city": "TERRELL",
    "egrid_subregion": "ERCT"
  },
  {
    "name": "CF INDUSTRIES NITROGEN LLC",
    "lat": 30.084493,
    "lon": -90.966771,
    "naics": "325311",
    "sector": "Fertilizer",
    "state": "LA",
    "city": "DONALDSONVILLE",
    "egrid_subregion": "SRMV"
  },
  {
    "name": "HAMILTON PRECISION METALS",
    "lat": 40.088729,
    "lon": -76.355556,
    "naics": "331491",
    "sector": "Aluminum",
    "state": "PA",
    "city": "LANCASTER",
    "egrid_subregion": "RFCE"
  },
  {
    "name": "CDAERO, LLC",
    "lat": 41.72721,
    "lon": -70.964245,
    "naics": "334416",
    "sector": "Solar",
    "state": "MA",
    "city": "NEW BEDFORD",
    "egrid_subregion": "NEWE"
  },
  {
    "name": "COFFEYVILLE RESOURCES NITROGEN FERTILIZERS LLC",
    "lat": 37.045262,
    "lon": -95.603956,
    "naics": "325311",
    "sector": "Fertilizer",
    "state": "KS",
    "city": "COFFEYVILLE",
    "egrid_subregion": "SPSO"
  },
  {
    "name": "USS MON VALLEY WORKS - IRVIN PLANT",
    "lat": 40.340524,
    "lon": -79.914952,
    "naics": "331221",
    "sector": "Iron & Steel",
    "state": "PA",
    "city": "WEST MIFFLIN",
    "egrid_subregion": "RFCW"
  },
  {
    "name": "SSAB ALABAMA INC",
    "lat": 30.950916,
    "lon": -88.025671,
    "naics": "331110",
    "sector": "Iron & Steel",
    "state": "AL",
    "city": "AXIS",
    "egrid_subregion": "SRSO"
  },
  {
    "name": "DMV USA INC.",
    "lat": 29.867071,
    "lon": -95.585069,
    "naics": "331210",
    "sector": "Iron & Steel",
    "state": "TX",
    "city": "HOUSTON",
    "egrid_subregion": "ERCT"
  },
  {
    "name": "VEST INC.",
    "lat": 33.985685,
    "lon": -118.20842,
    "naics": "331210",
    "sector": "Iron & Steel",
    "state": "CA",
    "city": "VERNON",
    "egrid_subregion": "CAMX"
  },
  {
    "name": "JSW STEEL USA OHIO INC.",
    "lat": 40.314623,
    "lon": -80.614585,
    "naics": "331110",
    "sector": "Iron & Steel",
    "state": "OH",
    "city": "MINGO JUNCTION",
    "egrid_subregion": "RFCW"
  },
  {
    "name": "CARPENTER TECHNOLOGY CORP",
    "lat": 40.362492,
    "lon": -75.936142,
    "naics": "331110",
    "sector": "Iron & Steel",
    "state": "PA",
    "city": "READING",
    "egrid_subregion": "RFCE"
  },
  {
    "name": "ELEKTRISOLA INC.",
    "lat": 43.322075,
    "lon": -71.629498,
    "naics": "331420",
    "sector": "Aluminum",
    "state": "NH",
    "city": "BOSCAWEN",
    "egrid_subregion": "NEWE"
  },
  {
    "name": "STEEL DYNAMICS INC ROANOKE BAR DIV",
    "lat": 37.274707,
    "lon": -80.000134,
    "naics": "331110",
    "sector": "Iron & Steel",
    "state": "VA",
    "city": "ROANOKE",
    "egrid_subregion": "RFCW"
  },
  {
    "name": "WILBUR-ELLIS CO RNA",
    "lat": 36.610193,
    "lon": -120.194776,
    "naics": "325314",
    "sector": "Fertilizer",
    "state": "CA",
    "city": "SAN JOAQUIN",
    "egrid_subregion": "CAMX"
  },
  {
    "name": "HAYNES INTERNATIONAL INC",
    "lat": 40.469009,
    "lon": -86.165162,
    "naics": "331491",
    "sector": "Aluminum",
    "state": "IN",
    "city": "KOKOMO",
    "egrid_subregion": "RFCW"
  },
  {
    "name": "ASH GROVE CEMENT",
    "lat": 33.668926,
    "lon": -94.467252,
    "naics": "327310",
    "sector": "Cement",
    "state": "AR",
    "city": "FOREMAN",
    "egrid_subregion": "SRMV"
  },
  {
    "name": "WORTHINGTON STEEL ROME LLC",
    "lat": 43.212503,
    "lon": -75.470034,
    "naics": "331221",
    "sector": "Iron & Steel",
    "state": "NY",
    "city": "ROME",
    "egrid_subregion": "NYUP"
  },
  {
    "name": "WEBCO INDUSTRIES INC. TX DIST. DIV.",
    "lat": 30.096016,
    "lon": -93.780528,
    "naics": "331210",
    "sector": "Iron & Steel",
    "state": "TX",
    "city": "ORANGE",
    "egrid_subregion": "SRMV"
  },
  {
    "name": "BUDDY'S PLANT PLUS CORP",
    "lat": 31.75236,
    "lon": -99.971417,
    "naics": "325314",
    "sector": "Fertilizer",
    "state": "TX",
    "city": "BALLINGER",
    "egrid_subregion": "ERCT"
  },
  {
    "name": "AMPHENOL PRINTED CIRCUITS",
    "lat": 33.383351,
    "lon": -111.816198,
    "naics": "334418",
    "sector": "Solar",
    "state": "AZ",
    "city": "MESA",
    "egrid_subregion": "AZNM"
  },
  {
    "name": "ARCO ALLOYS CORP",
    "lat": 42.374632,
    "lon": -83.053275,
    "naics": "331492",
    "sector": "Aluminum",
    "state": "MI",
    "city": "DETROIT",
    "egrid_subregion": "RFCM"
  },
  {
    "name": "ASARCO LLC RAY COMPLEX/ HAYDEN SMELTER & CONCENTRATOR",
    "lat": 33.001566,
    "lon": -110.780901,
    "naics": "331410",
    "sector": "Aluminum",
    "state": "AZ",
    "city": "HAYDEN",
    "egrid_subregion": "AZNM"
  },
  {
    "name": "AXON CIRCUIT INC",
    "lat": 27.946378,
    "lon": -82.347343,
    "naics": "334412",
    "sector": "Solar",
    "state": "FL",
    "city": "TAMPA",
    "egrid_subregion": "FRCC"
  },
  {
    "name": "WORTHINGTON STEEL",
    "lat": 41.563031,
    "lon": -84.05697,
    "naics": "331221",
    "sector": "Iron & Steel",
    "state": "OH",
    "city": "DELTA",
    "egrid_subregion": "RFCW"
  },
  {
    "name": "KYOCERA AVX COMPONENTS (BIDDEFORD) CORP",
    "lat": 43.467461,
    "lon": -70.4776,
    "naics": "334416",
    "sector": "Solar",
    "state": "ME",
    "city": "BIDDEFORD",
    "egrid_subregion": "NEWE"
  },
  {
    "name": "HIGH PERFORMANCE CONDUCTORS LLC.",
    "lat": 35.029071,
    "lon": -82.055525,
    "naics": "331420",
    "sector": "Aluminum",
    "state": "SC",
    "city": "INMAN",
    "egrid_subregion": "SRVC"
  },
  {
    "name": "SMELTER SERVICE CORP",
    "lat": 35.527297,
    "lon": -87.206175,
    "naics": "331314",
    "sector": "Aluminum",
    "state": "TN",
    "city": "MOUNT PLEASANT",
    "egrid_subregion": "SRTV"
  },
  {
    "name": "WILBUR ELLIS CO LLC RIO LINDA HUB",
    "lat": 38.685296,
    "lon": -121.481234,
    "naics": "325314",
    "sector": "Fertilizer",
    "state": "CA",
    "city": "RIO LINDA",
    "egrid_subregion": "CAMX"
  },
  {
    "name": "WARD MANUFACTURING LLC WAR DFLEX DIV",
    "lat": 41.967663,
    "lon": -77.11045,
    "naics": "331210",
    "sector": "Iron & Steel",
    "state": "PA",
    "city": "LAWRENCEVILLE",
    "egrid_subregion": "RFCE"
  },
  {
    "name": "HIGH-PURITY SILICON AMERICA CORP",
    "lat": 30.530209,
    "lon": -88.14308,
    "naics": "331410",
    "sector": "Aluminum",
    "state": "AL",
    "city": "THEODORE",
    "egrid_subregion": "SRSO"
  },
  {
    "name": "FAIRBORN CEMENT CO",
    "lat": 39.785237,
    "lon": -83.973956,
    "naics": "327310",
    "sector": "Cement",
    "state": "OH",
    "city": "XENIA",
    "egrid_subregion": "RFCW"
  },
  {
    "name": "ARDAGH GLASS INC",
    "lat": 39.410403,
    "lon": -75.220278,
    "naics": "327213",
    "sector": "Glass",
    "state": "NJ",
    "city": "BRIDGETON",
    "egrid_subregion": "RFCE"
  },
  {
    "name": "CLEVELAND-CLIFFS WEIRTON LLC",
    "lat": 40.418937,
    "lon": -80.589431,
    "naics": "331110",
    "sector": "Iron & Steel",
    "state": "WV",
    "city": "WEIRTON",
    "egrid_subregion": "RFCW"
  },
  {
    "name": "THE WORTHINGTON STEEL CO",
    "lat": 40.11306,
    "lon": -82.986369,
    "naics": "331221",
    "sector": "Iron & Steel",
    "state": "OH",
    "city": "COLUMBUS",
    "egrid_subregion": "RFCW"
  },
  {
    "name": "BONNELL ALUMINUM INC.",
    "lat": 36.218085,
    "lon": -85.951949,
    "naics": "331318",
    "sector": "Aluminum",
    "state": "TN",
    "city": "CARTHAGE",
    "egrid_subregion": "SRTV"
  },
  {
    "name": "PRECISION TECHNOLOGY INC",
    "lat": 40.707239,
    "lon": -111.890467,
    "naics": "334412",
    "sector": "Solar",
    "state": "UT",
    "city": "SALT LAKE CITY",
    "egrid_subregion": "NWPP"
  },
  {
    "name": "CHARTER MANUFACTURING CO. INC.",
    "lat": 41.442805,
    "lon": -81.65618,
    "naics": "331110",
    "sector": "Iron & Steel",
    "state": "OH",
    "city": "CUYAHOGA HEIGHTS",
    "egrid_subregion": "RFCW"
  },
  {
    "name": "LA SEMICONDUCTOR LLC.",
    "lat": 42.871999,
    "lon": -112.296254,
    "naics": "334413",
    "sector": "Solar",
    "state": "ID",
    "city": "POCATELLO",
    "egrid_subregion": "NWPP"
  },
  {
    "name": "MEGA CIRCUIT INC",
    "lat": 41.908409,
    "lon": -87.993282,
    "naics": "334412",
    "sector": "Solar",
    "state": "IL",
    "city": "ADDISON",
    "egrid_subregion": "RFCW"
  },
  {
    "name": "SCEPTER INC",
    "lat": 38.772706,
    "lon": -87.329562,
    "naics": "331314",
    "sector": "Aluminum",
    "state": "IN",
    "city": "BICKNELL",
    "egrid_subregion": "RFCW"
  },
  {
    "name": "PLM STEEL PIPES & TUBES",
    "lat": 27.611282,
    "lon": -99.514327,
    "naics": "331210",
    "sector": "Iron & Steel",
    "state": "TX",
    "city": "LAREDO",
    "egrid_subregion": "ERCT"
  },
  {
    "name": "REAL ALLOY RECYCLING LLC",
    "lat": 36.012851,
    "lon": -96.110816,
    "naics": "331314",
    "sector": "Aluminum",
    "state": "OK",
    "city": "SAPULPA",
    "egrid_subregion": "SPSO"
  },
  {
    "name": "BUZZI UNICEM STOCKERTOWN PLANT",
    "lat": 40.752567,
    "lon": -75.274269,
    "naics": "327310",
    "sector": "Cement",
    "state": "PA",
    "city": "STOCKERTOWN",
    "egrid_subregion": "RFCE"
  },
  {
    "name": "CMC STEEL FLORIDA",
    "lat": 30.285407,
    "lon": -81.977416,
    "naics": "331110",
    "sector": "Iron & Steel",
    "state": "FL",
    "city": "JACKSONVILLE",
    "egrid_subregion": "FRCC"
  },
  {
    "name": "GERDAU LONG STEEL NA-CHARLOTTE MILL",
    "lat": 35.339044,
    "lon": -80.827569,
    "naics": "331110",
    "sector": "Iron & Steel",
    "state": "NC",
    "city": "CHARLOTTE",
    "egrid_subregion": "SRVC"
  },
  {
    "name": "ALLEIMA LLC",
    "lat": 29.550822,
    "lon": -81.263417,
    "naics": "331420",
    "sector": "Aluminum",
    "state": "FL",
    "city": "PALM COAST",
    "egrid_subregion": "FRCC"
  },
  {
    "name": "RATHBONE PRECISION METALS INC",
    "lat": 42.151005,
    "lon": -72.313472,
    "naics": "331221",
    "sector": "Iron & Steel",
    "state": "MA",
    "city": "PALMER",
    "egrid_subregion": "NEWE"
  },
  {
    "name": "VMC SPECIALTY ALLOYS LLC",
    "lat": 34.36857,
    "lon": -84.904561,
    "naics": "331314",
    "sector": "Aluminum",
    "state": "GA",
    "city": "ADAIRSVILLE",
    "egrid_subregion": "SRSO"
  },
  {
    "name": "LATROBE SPECIALTY METALS - SANDY CREEK",
    "lat": 41.354503,
    "lon": -79.86737,
    "naics": "331110",
    "sector": "Iron & Steel",
    "state": "PA",
    "city": "FRANKLIN",
    "egrid_subregion": "RFCE"
  },
  {
    "name": "CHECON LLC",
    "lat": 43.296888,
    "lon": -73.643259,
    "naics": "331491",
    "sector": "Aluminum",
    "state": "NY",
    "city": "GLENS FALLS",
    "egrid_subregion": "NYUP"
  },
  {
    "name": "ARDAGH GLASS INC",
    "lat": 36.009926,
    "lon": -96.09895,
    "naics": "327213",
    "sector": "Glass",
    "state": "OK",
    "city": "SAPULPA",
    "egrid_subregion": "SPSO"
  },
  {
    "name": "EAGLE METALS",
    "lat": 40.397494,
    "lon": -76.007653,
    "naics": "331420",
    "sector": "Aluminum",
    "state": "PA",
    "city": "LEESPORT",
    "egrid_subregion": "RFCE"
  },
  {
    "name": "ALCOA BARBERTON",
    "lat": 41.025083,
    "lon": -81.619894,
    "naics": "331314",
    "sector": "Aluminum",
    "state": "OH",
    "city": "BARBERTON",
    "egrid_subregion": "RFCW"
  },
  {
    "name": "OWL'S HEAD ALLOYS INC.",
    "lat": 36.931402,
    "lon": -86.506043,
    "naics": "331314",
    "sector": "Aluminum",
    "state": "KY",
    "city": "BOWLING GREEN",
    "egrid_subregion": "SRTV"
  },
  {
    "name": "WORTHINGTON SAMUEL COIL PROCESSING - TWINSBURG",
    "lat": 41.291656,
    "lon": -81.468801,
    "naics": "331221",
    "sector": "Iron & Steel",
    "state": "OH",
    "city": "TWINSBURG",
    "egrid_subregion": "RFCW"
  },
  {
    "name": "CHICAGO HEIGHTS STEEL",
    "lat": 41.497356,
    "lon": -87.629107,
    "naics": "331221",
    "sector": "Iron & Steel",
    "state": "IL",
    "city": "CHICAGO HEIGHTS",
    "egrid_subregion": "RFCW"
  },
  {
    "name": "SWVA INC",
    "lat": 38.425229,
    "lon": -82.428505,
    "naics": "331110",
    "sector": "Iron & Steel",
    "state": "WV",
    "city": "HUNTINGTON",
    "egrid_subregion": "RFCW"
  },
  {
    "name": "NUCOR STEEL DECATUR LLC",
    "lat": 34.631525,
    "lon": -87.095067,
    "naics": "331110",
    "sector": "Iron & Steel",
    "state": "AL",
    "city": "TRINITY",
    "egrid_subregion": "SRTV"
  },
  {
    "name": "TRIS USA INC",
    "lat": 34.827405,
    "lon": -86.965292,
    "naics": "334419",
    "sector": "Solar",
    "state": "AL",
    "city": "ATHENS",
    "egrid_subregion": "SRTV"
  },
  {
    "name": "BULL MOOSE TUBE CO",
    "lat": 32.881699,
    "lon": -111.77715,
    "naics": "331210",
    "sector": "Iron & Steel",
    "state": "AZ",
    "city": "CASA GRANDE",
    "egrid_subregion": "AZNM"
  },
  {
    "name": "SKYLINE STEEL LLC-NEWTON",
    "lat": 38.991002,
    "lon": -88.197382,
    "naics": "331210",
    "sector": "Iron & Steel",
    "state": "IL",
    "city": "NEWTON",
    "egrid_subregion": "SRMW"
  },
  {
    "name": "HOT CELL SERVICES CORP",
    "lat": 47.398814,
    "lon": -122.22594,
    "naics": "327215",
    "sector": "Glass",
    "state": "WA",
    "city": "KENT",
    "egrid_subregion": "NWPP"
  },
  {
    "name": "SEH AMERICA INC",
    "lat": 45.6524,
    "lon": -122.55787,
    "naics": "334413",
    "sector": "Solar",
    "state": "WA",
    "city": "VANCOUVER",
    "egrid_subregion": "NWPP"
  },
  {
    "name": "PRATT & WHITNEY - HMI METAL POWDERS",
    "lat": 42.978152,
    "lon": -75.249321,
    "naics": "331492",
    "sector": "Aluminum",
    "state": "NY",
    "city": "CLAYVILLE",
    "egrid_subregion": "NYUP"
  },
  {
    "name": "OWENS-BROCKWAY GLASS CONTAINER INC PLANT 23",
    "lat": 33.99646,
    "lon": -118.218804,
    "naics": "327213",
    "sector": "Glass",
    "state": "CA",
    "city": "VERNON",
    "egrid_subregion": "CAMX"
  },
  {
    "name": "KOCH FERTILIZER FT. DODGE LLC",
    "lat": 42.501103,
    "lon": -94.018074,
    "naics": "325311",
    "sector": "Fertilizer",
    "state": "IA",
    "city": "DUNCOMBE",
    "egrid_subregion": "MROW"
  },
  {
    "name": "GCC RIO GRANDE INC",
    "lat": 35.075453,
    "lon": -106.387082,
    "naics": "327310",
    "sector": "Cement",
    "state": "NM",
    "city": "TIJERAS",
    "egrid_subregion": "AZNM"
  },
  {
    "name": "TESSENDERLO KERLEY INC. WYNNEWOOD PLANT",
    "lat": 34.636287,
    "lon": -97.172203,
    "naics": "325311",
    "sector": "Fertilizer",
    "state": "OK",
    "city": "WYNNEWOOD",
    "egrid_subregion": "SPSO"
  },
  {
    "name": "TENNESSEE ALUMINUM PROCESSORS INC",
    "lat": 35.545847,
    "lon": -87.182863,
    "naics": "331314",
    "sector": "Aluminum",
    "state": "TN",
    "city": "MOUNT PLEASANT",
    "egrid_subregion": "SRTV"
  },
  {
    "name": "ROYAL METAL PRODUCTS INC.",
    "lat": 33.714303,
    "lon": -85.022135,
    "naics": "331210",
    "sector": "Iron & Steel",
    "state": "GA",
    "city": "TEMPLE",
    "egrid_subregion": "SRSO"
  },
  {
    "name": "ATLANTIC ALUMINA GRAMERCY OPERATIONS",
    "lat": 30.073909,
    "lon": -90.666332,
    "naics": "331313",
    "sector": "Aluminum",
    "state": "LA",
    "city": "GRAMERCY",
    "egrid_subregion": "SRMV"
  },
  {
    "name": "USS GARY WORKS",
    "lat": 41.608491,
    "lon": -87.337345,
    "naics": "331110",
    "sector": "Iron & Steel",
    "state": "IN",
    "city": "GARY",
    "egrid_subregion": "RFCW"
  },
  {
    "name": "IPSCO TUBULARS INC",
    "lat": 35.955226,
    "lon": -89.733239,
    "naics": "331210",
    "sector": "Iron & Steel",
    "state": "AR",
    "city": "BLYTHEVILLE",
    "egrid_subregion": "SRMV"
  },
  {
    "name": "NUCOR STEEL - A DIV OF NUCOR CORP",
    "lat": 41.892862,
    "lon": -112.21441,
    "naics": "331110",
    "sector": "Iron & Steel",
    "state": "UT",
    "city": "PLYMOUTH",
    "egrid_subregion": "NWPP"
  },
  {
    "name": "ACUPOWDER INTERNATIONAL LLC",
    "lat": 40.683152,
    "lon": -74.242582,
    "naics": "331420",
    "sector": "Aluminum",
    "state": "NJ",
    "city": "UNION",
    "egrid_subregion": "RFCE"
  },
  {
    "name": "WESCO HMB INC.",
    "lat": 40.548593,
    "lon": -74.374788,
    "naics": "325120",
    "sector": "Hydrogen",
    "state": "NJ",
    "city": "METUCHEN",
    "egrid_subregion": "RFCE"
  },
  {
    "name": "ANTAYA TECHNOLOGIES CORP",
    "lat": 41.712927,
    "lon": -71.429249,
    "naics": "334417",
    "sector": "Solar",
    "state": "RI",
    "city": "WARWICK",
    "egrid_subregion": "NEWE"
  },
  {
    "name": "LENOIR MIRROR CO",
    "lat": 35.871398,
    "lon": -81.514713,
    "naics": "327215",
    "sector": "Glass",
    "state": "NC",
    "city": "LENOIR",
    "egrid_subregion": "SRVC"
  },
  {
    "name": "IMSAMET OF ARIZONA",
    "lat": 33.411843,
    "lon": -112.392041,
    "naics": "331314",
    "sector": "Aluminum",
    "state": "AZ",
    "city": "GOODYEAR",
    "egrid_subregion": "AZNM"
  },
  {
    "name": "SKANA ALUMINUM CO",
    "lat": 44.125783,
    "lon": -87.630352,
    "naics": "331315",
    "sector": "Aluminum",
    "state": "WI",
    "city": "MANITOWOC",
    "egrid_subregion": "MROE"
  },
  {
    "name": "ELGILOY SPECIALTY METALS",
    "lat": 42.151098,
    "lon": -88.510425,
    "naics": "331221",
    "sector": "Iron & Steel",
    "state": "IL",
    "city": "HAMPSHIRE",
    "egrid_subregion": "RFCW"
  },
  {
    "name": "DYNAMET",
    "lat": 27.900095,
    "lon": -82.700645,
    "naics": "331491",
    "sector": "Aluminum",
    "state": "FL",
    "city": "CLEARWATER",
    "egrid_subregion": "FRCC"
  },
  {
    "name": "TRAMMO NITROGEN PRODUCTS INC. C/O LEMM CORP - OPERAT",
    "lat": 39.119765,
    "lon": -84.79449,
    "naics": "325311",
    "sector": "Fertilizer",
    "state": "OH",
    "city": "NORTH BEND",
    "egrid_subregion": "RFCW"
  },
  {
    "name": "SCIENTIFIC COMPONENTS CORP",
    "lat": 40.583104,
    "lon": -73.95484,
    "naics": "334419",
    "sector": "Solar",
    "state": "NY",
    "city": "BROOKLYN",
    "egrid_subregion": "NYCW"
  },
  {
    "name": "AIR PRODUCTS WEST COAST HYDROGEN LLC - TORRANCE",
    "lat": 33.858238,
    "lon": -118.331633,
    "naics": "325120",
    "sector": "Hydrogen",
    "state": "CA",
    "city": "TORRANCE",
    "egrid_subregion": "CAMX"
  },
  {
    "name": "SUMMIT REFRIGERANTS",
    "lat": 29.938784,
    "lon": -95.261646,
    "naics": "325120",
    "sector": "Hydrogen",
    "state": "TX",
    "city": "HUMBLE",
    "egrid_subregion": "ERCT"
  },
  {
    "name": "VINTON STEEL LLC",
    "lat": 31.957716,
    "lon": -106.582904,
    "naics": "331110",
    "sector": "Iron & Steel",
    "state": "TX",
    "city": "VINTON",
    "egrid_subregion": "AZNM"
  },
  {
    "name": "PCS NITROGEN FERTILIZER LP",
    "lat": 30.241893,
    "lon": -91.050516,
    "naics": "325311",
    "sector": "Fertilizer",
    "state": "LA",
    "city": "GEISMAR",
    "egrid_subregion": "SRMV"
  },
  {
    "name": "CHEMALLOY CO LLC",
    "lat": 40.101731,
    "lon": -75.317946,
    "naics": "331110",
    "sector": "Iron & Steel",
    "state": "PA",
    "city": "CONSHOHOCKEN",
    "egrid_subregion": "RFCE"
  },
  {
    "name": "NLMK PENNSYLVANIA LLC",
    "lat": 41.211872,
    "lon": -80.506123,
    "naics": "331221",
    "sector": "Iron & Steel",
    "state": "PA",
    "city": "FARRELL",
    "egrid_subregion": "RFCW"
  },
  {
    "name": "VISHAY DALE PLANT 2",
    "lat": 41.438575,
    "lon": -97.340802,
    "naics": "334416",
    "sector": "Solar",
    "state": "NE",
    "city": "COLUMBUS",
    "egrid_subregion": "MROW"
  },
  {
    "name": "CERTAINTEED LLC",
    "lat": 34.476882,
    "lon": -87.733821,
    "naics": "327212",
    "sector": "Glass",
    "state": "AL",
    "city": "RUSSELLVILLE",
    "egrid_subregion": "SRSO"
  },
  {
    "name": "SUPERCON INC",
    "lat": 42.27827,
    "lon": -71.689826,
    "naics": "331491",
    "sector": "Aluminum",
    "state": "MA",
    "city": "SHREWSBURY",
    "egrid_subregion": "NEWE"
  },
  {
    "name": "MOSAIC FERTILIZER LLC-RIVERVIEW",
    "lat": 27.863518,
    "lon": -82.384934,
    "naics": "325312",
    "sector": "Fertilizer",
    "state": "FL",
    "city": "RIVERVIEW",
    "egrid_subregion": "FRCC"
  },
  {
    "name": "KAISER ALUMINUM FABRICATED PRODUCTS LLC",
    "lat": 42.254883,
    "lon": -85.523367,
    "naics": "331314",
    "sector": "Aluminum",
    "state": "MI",
    "city": "KALAMAZOO",
    "egrid_subregion": "RFCM"
  },
  {
    "name": "HM SOUTHEAST CEMENT LLC",
    "lat": 33.542012,
    "lon": -86.543863,
    "naics": "327310",
    "sector": "Cement",
    "state": "AL",
    "city": "LEEDS",
    "egrid_subregion": "SRSO"
  },
  {
    "name": "HERAEUS PRECIOUS METALS NA LLC",
    "lat": 33.887984,
    "lon": -118.045591,
    "naics": "331492",
    "sector": "Aluminum",
    "state": "CA",
    "city": "SANTA FE SPRINGS",
    "egrid_subregion": "CAMX"
  },
  {
    "name": "PROSOL INC.",
    "lat": 31.4877,
    "lon": -85.678052,
    "naics": "325314",
    "sector": "Fertilizer",
    "state": "AL",
    "city": "OZARK",
    "egrid_subregion": "SRSO"
  },
  {
    "name": "HUGHES CIRCUITS INC",
    "lat": 33.135347,
    "lon": -117.199296,
    "naics": "334412",
    "sector": "Solar",
    "state": "CA",
    "city": "SAN MARCOS",
    "egrid_subregion": "CAMX"
  },
  {
    "name": "AIR LIQUIDE LARGE INDUSTRIES US LP - RODEO HYDROGEN PLANT",
    "lat": 38.049582,
    "lon": -122.255822,
    "naics": "325120",
    "sector": "Hydrogen",
    "state": "CA",
    "city": "RODEO",
    "egrid_subregion": "CAMX"
  },
  {
    "name": "VOLUNTARY PURCHASING GROUPS INC",
    "lat": 33.570797,
    "lon": -96.233719,
    "naics": "325314",
    "sector": "Fertilizer",
    "state": "TX",
    "city": "BONHAM",
    "egrid_subregion": "ERCT"
  },
  {
    "name": "ANALOG DEVICES/CAMAS SITE",
    "lat": 45.599834,
    "lon": -122.452061,
    "naics": "334413",
    "sector": "Solar",
    "state": "WA",
    "city": "CAMAS",
    "egrid_subregion": "NWPP"
  },